codigo_estacion,institucion,fuente,nombre,altura,latitud,longitud,codigo_cuenca,nombre_cuenca,codigo_sub_cuenca,nombre_sub_cuenca
1000005,DGA,dga_web,Visviri,4080,-17.595,-69.4831,10.0,Altiplanicas,100.0,Entre Limite Peru-Bolivia Y Rio Lauca
1001001,DGA,dga_web,Rio Caquena En Nacimiento,4385,-18.0769,-69.1961,10.0,Altiplanicas,100.0,Eentre Limite Peru-Bolivia Y Rio Lauca
1001002,DGA,dga_web,Rio Caquena En Vertedero,0,-17.9942,-69.255,10.0,Altiplanicas,100.0,Eentre Limite Peru-Bolivia Y Rio Lauca
1001003,DGA,dga_web,Rio Colpacagua En Desembocadura,0,-18.0156,-69.2308,10.0,Altiplanicas,100.0,Eentre Limite Peru-Bolivia Y Rio Lauca
1001005,DGA,dga_web,Caquena,4400,-18.0542,-69.2017,10.0,Altiplanicas,100.0,Entre Limite Peru-Bolivia Y Rio Lauca
10100001,DGA,dga_web,Rio Huahum En Desembocadura Lago Pirihueico,598,-40.0175,-71.72,101.0,Rio Valdivia,1010.0,Rio Valdivia Alto (Hasta Desague Lago Panguipulli)
10100002,DGA,dga_web,Rio Fui En Desage Lago Pirihueico,600,-39.8747,-71.8897,101.0,Rio Valdivia,1010.0,Rio Valdivia Alto (Hasta Desague Lago Panguipulli)
10100004,DGA,dga_web,Pirihueico En Pirihueico,600,-40.0225,-71.7219,101.0,Rio Valdivia,1010.0,Rio Valdivia Alto (Hasta Desague Lago Panguipulli)
10100005,DGA,dga_web,Pirihueico En Pto. Fuy,600,-39.8719,-71.8889,101.0,Rio Valdivia,1010.0,Rio Valdivia Alto (Hasta Desague Lago Panguipulli)
10100006,DGA,dga_web,Rio Huahum En La Frontera,616,-40.0967,-71.6758,101.0,Rio Valdivia,1010.0,Rio Valdivia Alto (Hasta Desague Lago Panguipulli)
1010002,DGA,dga_web,Rio Chungara En Desembocadura,4518,-18.2833,-69.1333,10.0,Altiplanicas,101.0,Lago Chungara
1010007,DGA,dga_web,Chungara Reten,4570,-18.2808,-69.1383,10.0,Altiplanicas,101.0,Lago Chungara
1010008,DGA,dga_web,Missituni,4720,-18.3478,-69.1342,10.0,Altiplanicas,101.0,Lago Chungara
1010009,DGA,dga_web,Chungara Guarderia,4600,-18.2669,-69.1167,10.0,Altiplanicas,101.0,Lago Chungara
1010010,DGA,dga_web,Chungara Ajata,4585,-18.2353,-69.1833,10.0,Altiplanicas,101.0,Lago Chungara
10102001,DGA,dga_web,Rio Liquine En Liquine,600,-39.7267,-71.8497,101.0,Rio Valdivia,1010.0,Rio Valdivia Alto (Hasta Desague Lago Panguipulli)
10102002,DGA,dga_web,Liquie,230,-39.7272,-71.8506,101.0,Rio Valdivia,1010.0,Rio Valdivia Alto (Hasta Desague Lago Panguipulli)
10103001,DGA,dga_web,Lago Neltume,260,-39.8189,-71.9872,101.0,Rio Valdivia,1010.0,Rio Valdivia Alto (Hasta Desague Lago Panguipulli)
10106001,DGA,dga_web,Coaripe,215,-39.5744,-72.0053,101.0,Rio Valdivia,1010.0,Rio Valdivia Alto (Hasta Desague Lago Panguipulli)
10106002,DGA,dga_web,Lago Calafquen,385,-39.5469,-72.1519,101.0,Rio Valdivia,1010.0,Rio Valdivia Alto (Hasta Desague Lago Panguipulli)
10106003,DGA,dga_web,Lican-Ray,275,-39.4681,-72.1653,101.0,Rio Valdivia,1010.0,Rio Valdivia Alto (Hasta Desague Lago Panguipulli)
10111001,DGA,dga_web,Rio San Pedro En Desague Lago Rinihue,115,-39.7667,-72.475,101.0,Rio Valdivia,1011.0,Rio San Pedro (L Panguipulli Y Bajo R Quinchilca)
10111002,DGA,dga_web,Lago Riihue,120,-39.7731,-72.4581,101.0,Rio Valdivia,1011.0,R. San Pedro (Entre Desague L. Panguipulli Y Bajo R. Quinchilca)
10113001,DGA,dga_web,Rio San Pedro En Malihue,110,-39.7333,-72.6833,101.0,Rio Valdivia,1011.0,Rio San Pedro (L Panguipulli Y Bajo R Quinchilca)
10121001,DGA,dga_web,Rio Collileufu En Los Lagos,25,-39.8583,-72.825,101.0,Rio Valdivia,1012.0,Rio Calle Calle
10122001,DGA,dga_web,Rio Calle Calle En Balsa San Javier,14,-39.775,-72.9833,101.0,Rio Valdivia,1012.0,Rio Calle Calle
10122002,DGA,dga_web,Rio Calle Calle En Antilhue,15,-39.8,-72.9667,101.0,Rio Valdivia,1012.0,Rio Calle Calle
10122003,DGA,dga_web,Rio Calle Calle En Pupunahue,60,-39.8044,-72.9025,101.0,Rio Valdivia,1012.0,Rio Calle Calle
10123004,DGA,dga_web,Llancahue,70,-39.8561,-73.1786,101.0,Rio Valdivia,1012.0,Rio Calle Calle
10123005,DGA,dga_web,Valdivia,10,-39.8164,-73.2428,101.0,Rio Valdivia,1012.0,Rio Calle Calle
10123006,DGA,dga_web,Valdivia (U. Austral),10,-39.8103,-73.2517,101.0,Rio Valdivia,1012.0,Rio Calle Calle
10130001,DGA,dga_web,Loncoche,120,-39.37,-72.6417,101.0,Rio Valdivia,1013.0,Rio Cruces
10133000,DGA,dga_web,Rio Leufucade En Purulon,97,-39.4781,-72.6908,101.0,Rio Valdivia,1013.0,Rio Cruces
10134001,DGA,dga_web,Rio Cruces En Rucaco,60,-39.55,-72.9,101.0,Rio Valdivia,1013.0,Rio Cruces
10134002,DGA,dga_web,San Jose Mariquina,30,-39.5522,-72.8989,101.0,Rio Valdivia,1013.0,Rio Cruces
10135001,DGA,dga_web,Rio Cruces En Paico,17,-39.5833,-73.1,101.0,Rio Valdivia,1013.0,Rio Cruces
10137001,DGA,dga_web,Rio Inaque En Mafil,25,-39.6675,-72.95,101.0,Rio Valdivia,1013.0,Rio Cruces
10137002,DGA,dga_web,Huichaco,95,-39.7078,-72.7422,101.0,Rio Valdivia,1013.0,Rio Cruces
10138001,DGA,dga_web,Rio Inaque En Putabla,21,-39.6833,-73.0167,101.0,Rio Valdivia,1013.0,Rio Cruces
10140001,DGA,dga_web,Rio Santo Domingo En Rinconada De Piedra,0,-39.3833,-73.1333,101.0,Rio Valdivia,1014.0,Rio Valdivia Bajo (Entre Rio Angachillas Y Desemb)
10141001,DGA,dga_web,Catamutun,150,-40.1658,-73.1689,101.0,Rio Valdivia,1014.0,R. Valdivia Bajo
10142001,DGA,dga_web,Rio Futa En Puente Chiflon,85,-40.0333,-73.1667,101.0,Rio Valdivia,1014.0,Rio Valdivia Bajo (Entre Rio Angachillas Y Desemb)
10142002,DGA,dga_web,Rio Futa En Futa,60,-39.9833,-73.15,101.0,Rio Valdivia,1014.0,Rio Valdivia Bajo (Entre Rio Angachillas Y Desemb)
10142003,DGA,dga_web,Rio Futa En Tres Chiflones,10,-39.9717,-73.1469,101.0,Rio Valdivia,1014.0,Rio Valdivia Bajo (Entre Rio Angachillas Y Desemb)
1020002,DGA,dga_web,Rio Desaguadero Cotacotani,4500,-18.1936,-69.2458,10.0,Altiplanicas,102.0,Rio Lauca
1020003,DGA,dga_web,Rio Lauca En Estancia El Lago,4370,-18.2325,-69.3319,10.0,Altiplanicas,102.0,Rio Lauca
1020004,DGA,dga_web,"Canal Lauca En Sifon N"" 1 (Km. 3.3)",4384,-18.2294,-69.3311,10.0,Altiplanicas,102.0,Rio Lauca
1020013,DGA,dga_web,Isla Blanca,4540,-18.1858,-69.2142,10.0,Altiplanicas,102.0,Rio Lauca
1020014,DGA,dga_web,Cotacotani,4550,-18.1836,-69.2328,10.0,Altiplanicas,102.0,Rio Lauca
1020015,DGA,dga_web,Parinacota Conaf Dga,4420,-18.2014,-69.2683,10.0,Altiplanicas,102.0,Rio Lauca
1020016,DGA,dga_web,Chucuyo Reten,4400,-18.2164,-69.2956,10.0,Altiplanicas,102.0,Rio Lauca
1020017,DGA,dga_web,Parinacota Ex Endesa,4420,-18.2042,-69.2683,10.0,Altiplanicas,102.0,Rio Lauca
1020018,DGA,dga_web,Chucuyo (Ex. Endesa),4400,-18.2181,-69.3214,10.0,Altiplanicas,102.0,Rio Lauca
1021001,DGA,dga_web,Rio Lauca En Japu (O En El Limite),3907,-18.5833,-69.0467,10.0,Altiplanicas,102.0,Rio Lauca
1021002,DGA,dga_web,Rio Guallatire En Guallatire,4280,-18.4931,-69.1494,10.0,Altiplanicas,102.0,Rio Lauca
1021007,DGA,dga_web,Guallatire,4240,-18.4983,-69.1547,10.0,Altiplanicas,102.0,Rio Lauca
1030003,DGA,dga_web,Chilcaya,4270,-18.7939,-69.0844,10.0,Altiplanicas,103.0,Salar De Surire
10304001,DGA,dga_web,Rio Calcurrupe En Desembocadura,160,-40.25,-72.2667,103.0,Rio Bueno,1030.0,Afluentes Lago Ranco
10304002,DGA,dga_web,Lago Maihue,100,-40.2172,-72.1492,103.0,Rio Bueno,1030.0,Afluentes Lago Ranco
10305001,DGA,dga_web,Rio Caunahue Camino A Llifen,90,-40.1522,-72.2511,103.0,Rio Bueno,1030.0,Afluentes Lago Ranco
10305002,DGA,dga_web,Caunahue,100,-40.1592,-72.2528,103.0,Rio Bueno,1030.0,Afluentes Lago Ranco
10306001,DGA,dga_web,Rio Nilahue En Mayay,80,-40.2667,-72.2333,103.0,Rio Bueno,1030.0,Afluentes Lago Ranco
10307001,DGA,dga_web,Lago Ranco,100,-40.3172,-72.4692,103.0,Rio Bueno,1030.0,Afluentes Lago Ranco
10311001,DGA,dga_web,Rio Bueno En Bueno,45,-40.3167,-72.9667,103.0,Rio Bueno,1031.0,Rio Bueno Entre Lago Ranco Y Rio Pilmaiquen
10312001,DGA,dga_web,El Llolly,225,-40.0672,-72.6169,103.0,Rio Bueno,1031.0,Rio Bueno Entre Lago Ranco Y Rio Pilmaiquen
10313001,DGA,dga_web,Rio Llollelhue En La Union,20,-40.2667,-73.0833,103.0,Rio Bueno,1031.0,Rio Bueno Entre Lago Ranco Y Rio Pilmaiquen
10322002,DGA,dga_web,Anticura,350,-40.6553,-72.1844,103.0,Rio Bueno,1032.0,Rio Pilmaiquen
10322003,DGA,dga_web,Rio Gol Gol En Puente Nº 2,330,-40.6603,-72.1772,103.0,Rio Bueno,1032.0,Rio Pilmaiquen
10323002,DGA,dga_web,Futacuhuin,195,-40.7231,-72.44,103.0,Rio Bueno,1032.0,Rio Pilmaiquen
10327001,DGA,dga_web,Rio Chirre Antes Junta Rio Pilmaiquen,0,-40.4333,-72.9167,103.0,Rio Bueno,1032.0,Rio Pilmaiquen
10328001,DGA,dga_web,Rio Pilmaiquen En San Pablo,40,-40.3842,-73.0022,103.0,Rio Bueno,1032.0,Rio Pilmaiquen
10330001,DGA,dga_web,Rio Bueno En Trumao,15,-40.3333,-73.1833,103.0,Rio Bueno,1033.0,Rio Bueno Entre Rio Pilmaiquen Y Rio Rahue
10340001,DGA,dga_web,Rio Rahue En Desague Lago Rupanco,130,-40.7889,-72.6889,103.0,Rio Bueno,1034.0,Rio Rahue Hasta Antes Junta Rio Negro
10340002,DGA,dga_web,Rupanco,170,-40.7733,-72.6839,103.0,Rio Bueno,1034.0,Rio Rahue Hasta Antes Junta Rio Negro
10343001,DGA,dga_web,Rio Coihueco Antes Junta Pichicope,150,-40.9333,-72.7,103.0,Rio Bueno,1034.0,Rio Rahue Hasta Antes Junta Rio Negro
10343002,DGA,dga_web,Rio Coihueco Antes Junta Rio Rahue,75,-40.8206,-72.9133,103.0,Rio Bueno,1034.0,Rio Rahue Hasta Antes Junta Rio Negro
10344001,DGA,dga_web,Rio Rahue En Cancura,85,-40.75,-72.9833,103.0,Rio Bueno,1034.0,Rio Rahue Hasta Antes Junta Rio Negro
10344003,DGA,dga_web,Rio Rahue Antes Junta Rio Negro,40,-40.63,-73.1783,103.0,Rio Bueno,1034.0,Rio Rahue Hasta Antes Junta Rio Negro
10344004,DGA,dga_web,Rio Rahue En Chan Chan,50,-40.7022,-73.0164,103.0,Rio Bueno,1034.0,Rio Rahue Hasta Antes Junta Rio Negro
10350001,DGA,dga_web,Fresia,148,-41.1533,-73.4111,103.0,Rio Bueno,1035.0,Rio Negro
10351001,DGA,dga_web,Rio Toro En Tegualda,95,-41.05,-73.3833,103.0,Rio Bueno,1035.0,Rio Negro
10354001,DGA,dga_web,Rio Negro,50,-40.7828,-73.2139,103.0,Rio Bueno,1035.0,Rio Negro
10355001,DGA,dga_web,Purranque,145,-40.9367,-73.1372,103.0,Rio Bueno,1035.0,Rio Negro
10355003,DGA,dga_web,Rio Forrahue En Rio Negro,52,-40.7956,-73.2144,103.0,Rio Bueno,1035.0,Rio Negro
10356001,DGA,dga_web,Rio Negro En Chahuilco,45,-40.7136,-73.2278,103.0,Rio Bueno,1035.0,Rio Negro
10360001,DGA,dga_web,Rio Rahue En Osorno,20,-40.55,-73.15,103.0,Rio Bueno,1034.0,Rio Rahue Bajo (Entre Antes Jta R Negro R Bueno)
10360002,DGA,dga_web,Adolfo Matthei,55,-40.5883,-73.1069,103.0,Rio Bueno,1036.0,R. Rahue Bajo
10362001,DGA,dga_web,Rio Damas En Tacamo,1250,-40.6181,-73.0594,103.0,Rio Bueno,1034.0,Rio Rahue Bajo (Entre Antes Jta R Negro R Bueno)
10363002,DGA,dga_web,Rio Forrahue En Aromos,0,-40.8856,-73.1333,103.0,Rio Bueno,1034.0,Rio Rahue Bajo (Entre Antes Jta R Negro R Bueno)
10363003,DGA,dga_web,Rahue Alto,45,-40.5661,-73.1622,103.0,Rio Bueno,1036.0,R. Rahue Bajo
10363004,DGA,dga_web,Osorno,30,-40.5719,-73.1211,103.0,Rio Bueno,1036.0,R. Rahue Bajo
10364001,DGA,dga_web,Rio Rahue En Forrahue,17,-40.5167,-73.2833,103.0,Rio Bueno,1034.0,Rio Rahue Bajo (Entre Antes Jta R Negro R Bueno)
10371001,DGA,dga_web,Trinidad,40,-40.3142,-73.4333,103.0,Rio Bueno,1037.0,R.  Bueno Bajo
10372001,DGA,dga_web,Venecia,900,-40.1933,-73.4311,103.0,Rio Bueno,1037.0,R.  Bueno Bajo
10401001,DGA,dga_web,Rio Tranallaguin En Carrico,45,-40.5833,-73.6,104.0,Cuencas E Islas R. Bueno - R. Puelo,1040.0,Costeras Entre Rio Bueno Y Rio Maullin
10401002,DGA,dga_web,Bahia Mansa,130,-40.5764,-73.7158,104.0,Cuencas E Islas Entre R.Bueno Y R. Puelo,1040.0,Costeras Entre Rio Bueno Y Rio Maullin
10405001,DGA,dga_web,Rio Hueyusca En Napeco,25,-41.1,-73.6667,104.0,Cuencas E Islas R. Bueno - R. Puelo,1040.0,Costeras Entre Rio Bueno Y Rio Maullin
10405002,DGA,dga_web,Rio Hueyusca En Camarones,40,-41.0167,-73.6167,104.0,Cuencas E Islas Entre R.Bueno Y R. Puelo,1040.0,Costeras Entre Rio Bueno Y Rio Maullin
10405004,DGA,dga_web,Llico Bajo,15,-41.2867,-73.8353,104.0,Cuencas E Islas Entre R.Bueno Y R. Puelo,1040.0,Costeras Entre Rio Bueno Y Rio Maullin
10405005,DGA,dga_web,Rio La Plata Antes Junta Rio Hueyusca,50,-40.9992,-73.5997,104.0,Cuencas E Islas R. Bueno - R. Puelo,1040.0,Costeras Entre Rio Bueno Y Rio Maullin
10410004,DGA,dga_web,Frutillar,142,-41.1267,-73.0611,104.0,Cuencas E Islas Entre R.Bueno Y R. Puelo,1041.0,Rio Maullin
10410005,DGA,dga_web,La Ensenada,62,-41.2269,-72.5681,104.0,Cuencas E Islas Entre R.Bueno Y R. Puelo,1041.0,Rio Maullin
1041001,DGA,dga_web,Rio Cariquima En Cariquima,4000,-19.4497,-68.6414,10.0,Altiplanicas,104.0,Entre Estero Sencata Y Rio Sacaya
10410015,DGA,dga_web,Cascada,75,-41.0781,-72.6328,104.0,Cuencas E Islas R. Bueno - R. Puelo,1041.0,Rio Maullin
1041002,DGA,dga_web,Rio Isluga En Bocatoma,4000,-19.2711,-68.6797,10.0,Altiplanicas,104.0,Entre Estero Sencata Y Rio Sacaya
1041003,DGA,dga_web,Colchane (T. Isluga),3700,-19.2764,-68.6378,10.0,Altiplanicas,104.0,Entre Estero Sencata Y Rio Sacaya
1041004,DGA,dga_web,Enquelca (Ex Caraguano),3900,-19.2289,-68.8044,10.0,Altiplanicas,104.0,Entre Estero Sencata Y Rio Sacaya
10411001,DGA,dga_web,Canal Desague Aeropuerto Tepual,108,-41.4167,-73.1167,104.0,Cuencas E Islas R. Bueno - R. Puelo,1041.0,Rio Maullin
10411002,DGA,dga_web,Rio Negro En Las Lomas,60,-41.3833,-73.0667,104.0,Cuencas E Islas R. Bueno - R. Puelo,1041.0,Rio Maullin
10411003,DGA,dga_web,Rio Maullin En Llanquihue,50,-41.2667,-73.0167,104.0,Cuencas E Islas R. Bueno - R. Puelo,1041.0,Rio Maullin
10414001,DGA,dga_web,Rio Maullin En Las Quemas,0,-41.4,-73.2167,104.0,Cuencas E Islas R. Bueno - R. Puelo,1041.0,Rio Maullin
10417001,DGA,dga_web,Maullin,5,-41.6153,-73.6,104.0,Cuencas E Islas Entre R.Bueno Y R. Puelo,1041.0,Rio Maullin
1042001,DGA,dga_web,Cancosa,3930,-19.8553,-68.6017,10.0,Altiplanicas,104.0,Entre Estero Sencata Y Rio Sacaya
1042002,DGA,dga_web,Huaytani,3950,-20.0003,-68.5706,10.0,Altiplanicas,104.0,Entre Estero Sencata Y Rio Sacaya
10425001,DGA,dga_web,Puerto Montt,90,-41.46,-72.9378,104.0,Cuencas E Islas Entre R.Bueno Y R. Puelo,1042.0,Costeras E Islas Entre Rio Maullin Y Rio Chamiza
10430001,DGA,dga_web,Lago Chapo,270,-41.4172,-72.5958,104.0,Cuencas E Islas Entre R.Bueno Y R. Puelo,1043.0,Rio Chamiza
10430005,DGA,dga_web,Lago Chapo (Lm),290,-41.4297,-72.5764,104.0,Cuencas E Islas Entre R.Bueno Y R. Puelo,1043.0,Rio Chamiza
10431000,DGA,dga_web,Rio Blanco Ante Junta Rio Chamiza,242,-41.4275,-72.5928,104.0,Cuencas E Islas R. Bueno - R. Puelo,1043.0,Rio Chamiza
10431001,DGA,dga_web,Rio Lenca Bajo Bocatoma,320,-41.5083,-72.645,104.0,Cuencas E Islas R. Bueno - R. Puelo,1043.0,Rio Chamiza
10432002,DGA,dga_web,Rio Chamiza Ante Junta Rio Chico,8,-41.4417,-72.8089,104.0,Cuencas E Islas R. Bueno - R. Puelo,1043.0,Rio Chamiza
10432003,DGA,dga_web,Rio Chico Ante Rio Chamiza,0,-41.4392,-72.8183,104.0,Cuencas E Islas R. Bueno - R. Puelo,1043.0,Rio Chamiza
10432004,DGA,dga_web,Pelluco (U. Austral),25,-41.4911,-72.8958,104.0,Cuencas E Islas Entre R.Bueno Y R. Puelo,1043.0,Rio Chamiza
10440000,DGA,dga_web,Captacion Lenca,0,-41.5114,-72.6058,104.0,Cuencas E Islas R. Bueno - R. Puelo,1044.0,Costeras Entre Rio Chamiza Y Rio Petrohue
1044001,DGA,dga_web,Rio Cancosa En El Tambo,4000,-19.8586,-68.5858,10.0,Altiplanicas,104.0,Entre Estero Sencata Y Rio Sacaya
10454001,DGA,dga_web,Rio Petrohue En Desague Lago Todos Los Santos,150,-41.1333,-72.4167,104.0,Cuencas E Islas R. Bueno - R. Puelo,1045.0,Rio Petrohue
1050001,DGA,dga_web,Quebrada Piga En Ojos De Agua,0,-20.0333,-68.8333,10.0,Altiplanicas,105.0,Salar Del Huasco
1050002,DGA,dga_web,Rio Piga En Collacagua,0,-20.0344,-68.8311,10.0,Altiplanicas,105.0,Salar Del Huasco
1050003,DGA,dga_web,Rio Batea En Confluencia,0,-20.0333,-68.8333,10.0,Altiplanicas,105.0,Salar Del Huasco
1050004,DGA,dga_web,Rio Collacagua En Peablanca,3853,-20.1119,-68.8408,10.0,Altiplanicas,105.0,Salar Del Huasco
1050007,DGA,dga_web,Coyacagua,4013,-20.0531,-68.8075,10.0,Altiplanicas,105.0,Salar Del Huasco
1050009,DGA,dga_web,Diablo Marca,4585,-20.1044,-68.9681,10.0,Altiplanicas,105.0,Salar Del Huasco
1050010,DGA,dga_web,Sillillica,3840,-20.3219,-68.8936,10.0,Altiplanicas,105.0,Salar Del Huasco
10503001,DGA,dga_web,Rio Manso Antes Junta Rio Puelo,28,-41.7219,-72.0139,105.0,Rio Puelo,1050.0,Rio Manso
1051001,DGA,dga_web,Vertiente El ErmitaÑO En Lag.Huasco,3790,-20.2867,-68.8875,10.0,Altiplanicas,105.0,Salar Del Huasco
1051003,DGA,dga_web,Salar Huasco,3800,-20.2761,-68.8861,10.0,Altiplanicas,105.0,Salar Del Huasco
1051004,DGA,dga_web,Altos Del Huasco,4044,-20.1703,-68.7703,10.0,Altiplanicas,105.0,Salar Del Huasco
10512000,DGA,dga_web,Llanada Grande,248,-41.4242,-71.9386,105.0,Rio Puelo,1051.0,R. Puelo Alto
10514001,DGA,dga_web,Rio Puelo Antes Junta Con Manso,23,-41.7569,-72.0525,105.0,Rio Puelo,1051.0,Rio Puelo Alto (Entre Frontera Y Antes Jta Manso)
10520001,DGA,dga_web,Rio Puelo En Desague Lago Tagua Tagua,22,-41.6389,-72.1694,105.0,Rio Puelo,1052.0,R. Puelo Bajo
10523001,DGA,dga_web,Puelo,5,-41.6511,-72.3117,105.0,Rio Puelo,1052.0,R. Puelo Bajo
10523002,DGA,dga_web,Rio Puelo En Carrera Basilio,0,-41.6044,-72.2064,105.0,Rio Puelo,1050.0,Rio Puelo Bajo (Entre Bajo Junta Manso Y Desemb)
10610001,DGA,dga_web,Hornopiren,25,-41.9383,-72.435,106.0,Costeras Entre R.Puelo Y R.Yelcho,1061.0,Costeras Entre Pta Tentelhue Y Rio Negro (Incl.)
10683001,DGA,dga_web,Chaiten,10,-42.9147,-72.7108,106.0,Costeras Entre R.Puelo Y R.Yelcho,1068.0,Costeras Entre R. Negro (Incl.) Y R. Yelcho
10683002,DGA,dga_web,Rio Blanco En Chaiten,10,-42.9183,-72.7039,106.0,Costeras Entre R.Puelo Y R.Yelcho,1068.0,Costeras Entre R. Negro (Incl.) Y R. Yelcho
10701001,DGA,dga_web,Lago Espolon,350,-43.2158,-71.9306,107.0,Rio Yelcho,1070.0,Rio Futaleufu
10701002,DGA,dga_web,Rio Espolon En Desague Lago Espolon,380,-43.2094,-71.9369,107.0,Rio Yelcho,1070.0,Rio Futaleufu
10702001,DGA,dga_web,Rio Futaleufu En Futaleufu,317,-43.19,-71.8389,107.0,Rio Yelcho,1070.0,Rio Futaleufu
10702002,DGA,dga_web,Rio Futaleufu En La Frontera,314,-43.1742,-71.7544,107.0,Rio Yelcho,1070.0,Rio Futaleufu
10704001,DGA,dga_web,Palena,275,-43.6175,-71.7839,107.0,Rio Yelcho,1070.0,Rio Futaleufu
10704002,DGA,dga_web,Rio Futaleufu Ante Junta Rio Malito,42,-43.4492,-72.1075,107.0,Rio Yelcho,1070.0,Rio Futaleufu
10710001,DGA,dga_web,Puerto. Cardenas,55,-43.175,-72.4308,107.0,Rio Yelcho,1071.0,Rio Yelcho
1080001,DGA,dga_web,Ujina,4300,-20.9714,-68.6275,10.0,Altiplanicas,108.0,Salar De Michincha
1080002,DGA,dga_web,Collahuasi,4250,-20.9961,-68.8019,10.0,Altiplanicas,108.0,Salar De Michincha
10900001,DGA,dga_web,Quemchi,5,-42.1408,-73.4731,109.0,Islas Chiloe Y Circundantes,1090.0,Isla Chiloe
10900002,DGA,dga_web,Ancud 2 (Doh),9,-41.8792,-73.7964,109.0,Islas Chiloe Y Circundantes,1090.0,Isla Chiloe
10901002,DGA,dga_web,Castro 1 (Dga),50,-42.4581,-73.7744,109.0,Islas Chiloe Y Circundantes,1090.0,Isla Chiloe
10901003,DGA,dga_web,Chonchi,30,-42.6228,-73.7728,109.0,Islas Chiloe Y Circundantes,1090.0,Isla Chiloe
10901004,DGA,dga_web,Castro 2 (Doh),20,-42.4794,-73.7742,109.0,Islas Chiloe Y Circundantes,1090.0,Isla Chiloe
10902002,DGA,dga_web,Quellon,50,-43.1086,-73.6119,109.0,Islas Chiloe Y Circundantes,1090.0,Isla Chiloe
10903001,DGA,dga_web,Rio Vilcun En Bel-Ben,0,-42.0908,-73.75,109.0,Islas Chiloe Y Circundantes,1090.0,Isla Chiloe
10903003,DGA,dga_web,Ancud 1 (Dga),20,-41.8625,-73.8192,109.0,Islas Chiloe Y Circundantes,1090.0,Isla Chiloe
10904001,DGA,dga_web,Rio Grande En San Pedro,0,-42.3933,-73.8594,109.0,Islas Chiloe Y Circundantes,1090.0,Isla Chiloe
10904005,DGA,dga_web,Chepu,20,-42.0464,-73.9742,109.0,Islas Chiloe Y Circundantes,1090.0,Isla Chiloe
10906004,DGA,dga_web,Cucao,12,-42.6186,-74.1081,109.0,Islas Chiloe Y Circundantes,1090.0,Isla Chiloe
11020001,DGA,dga_web,Estero Lopez Antes Junta Rio Encuentro,450,-43.75,-71.8,110.0,Rio Palena Y Costeras Limite Decima Region,1102.0,Rio Palena Entre Frontera Y Rio Rosselot
11020002,DGA,dga_web,Rio Encuentro Antes Junta Estero Lopez,450,-43.5833,-71.7333,110.0,Rio Palena Y Costeras Limite Decima Region,1102.0,Rio Palena Entre Frontera Y Rio Rosselot
11020003,DGA,dga_web,Rio Encuentro Despues De Confluencia,0,-43.6167,-71.7,110.0,Rio Palena Y Costeras Limite Decima Region,1102.0,Rio Palena Entre Frontera Y Rio Rosselot
11020004,DGA,dga_web,Rio Tigre En La Frontera,650,-43.7169,-71.7108,110.0,Rio Palena Y Costeras Limite Decima Region,1102.0,Rio Palena Entre Frontera Y Rio Rosselot
11023001,DGA,dga_web,Valle Rio Frio,215,-43.4683,-72.3536,110.0,Rio Palena Y Costeras Limite Decima Region,1102.0,Rio Palena Entre Frontera Y Rio Rosselot
11023002,DGA,dga_web,Villa Santa Lucia,327,-43.4128,-72.3658,110.0,Rio Palena Y Costeras Limite Decima Region,1102.0,Rio Palena Entre Frontera Y Rio Rosselot
11031001,DGA,dga_web,Lago Verde,350,-44.2394,-71.8461,110.0,Rio Palena Y Costeras Limite Decima Region,1103.0,Rio Rosselot
11033001,DGA,dga_web,Villa Alegre (L.E.),150,-44.0669,-72.2008,110.0,Rio Palena Y Costeras Limite Decima Region,1103.0,Rio Rosselot
11034001,DGA,dga_web,Bordalit,90,-44.0483,-72.3161,110.0,Rio Palena Y Costeras Limite Decima Region,1103.0,Rio Rosselot
11040001,DGA,dga_web,Rio Palena Bajo Junta Rosselot,40,-43.8189,-72.3833,110.0,Rio Palena Y Costeras Limite Decima Region,1103.0,Rio Palena Bajo (Bajo Junta Rosselot Y Desemb)
11041001,DGA,dga_web,La Junta,45,-43.9708,-72.4056,110.0,Rio Palena Y Costeras Limite Decima Region,1104.0,R. Palena Bajo
11043001,DGA,dga_web,Marin Balmaceda,10,-43.7717,-72.9547,110.0,Rio Palena Y Costeras Limite Decima Region,1104.0,R. Palena Bajo
1110001,DGA,dga_web,Puquios,3750,-18.1747,-69.7439,11.0,Quebrada De La Concordia,111.0,Quebrada De La Concordia
11120001,DGA,dga_web,Puerto Puyuhuapi,10,-44.3228,-72.5597,111.0,Costeras E Islas Entre R.Palena Y R.Aisen,1112.0,Costeras Entre Rio Marchant Y Seno Ventisquero
11130001,DGA,dga_web,Rio Ventisquero En Carretera Austral,45,-44.4625,-72.5583,111.0,Costeras E Islas R. Palena - R. Aisen,1113.0,Costeras Entre Seno Ventisquero Y Rio Cisnes
11140001,DGA,dga_web,Rio Cisnes,740,-44.4975,-71.3064,111.0,Costeras E Islas Entre R.Palena Y R.Aisen,1114.0,Rio Cisnes
11141001,DGA,dga_web,Rio Cisnes En Estancia Rio Cisnes,480,-44.5936,-71.5478,111.0,Costeras E Islas R. Palena - R. Aisen,1114.0,Rio Cisnes
11143001,DGA,dga_web,Rio Cisnes Antes Junta Rio Moro,500,-44.6592,-71.8083,111.0,Costeras E Islas R. Palena - R. Aisen,1114.0,Rio Cisnes
11143002,DGA,dga_web,Rio Moro Antes Junta Rio Cisnes,516,-44.75,-72.7167,111.0,Costeras E Islas R. Palena - R. Aisen,1114.0,Rio Cisnes
11143003,DGA,dga_web,La Tapera,550,-44.6472,-71.6736,111.0,Costeras E Islas Entre R.Palena Y R.Aisen,1114.0,Rio Cisnes
11144002,DGA,dga_web,Cisnes Medio,180,-44.6653,-72.2661,111.0,Costeras E Islas Entre R.Palena Y R.Aisen,1114.0,Rio Cisnes
11147001,DGA,dga_web,Rio Cisnes En Puerto Cisnes,16,-44.75,-72.7167,111.0,Costeras E Islas R. Palena - R. Aisen,1114.0,Rio Cisnes
11147002,DGA,dga_web,Rio Grande En Carretera Austral,200,-44.6442,-72.275,111.0,Costeras E Islas R. Palena - R. Aisen,1114.0,Rio Cisnes
11147003,DGA,dga_web,Puerto Cisnes,10,-44.7278,-72.6814,111.0,Costeras E Islas Entre R.Palena Y R.Aisen,1114.0,Rio Cisnes
11151001,DGA,dga_web,Rio Cuervo En Desembocadura,80,-45.35,-73.0333,111.0,Costeras E Islas R. Palena - R. Aisen,1115.0,Costeras Entre Rio Cisnes Y Punta San Andres
11180000,DGA,dga_web,Islas Huichas,6,-45.1553,-73.5164,111.0,Costeras E Islas Entre R.Palena Y R.Aisen,1118.0,Islas Al Este Canal Moraleda
11300001,DGA,dga_web,Estancia Bao Nuevo,700,-45.2669,-71.5292,113.0,Rio Aisen,1130.0,Rio Maniguales
11302001,DGA,dga_web,Rio ÑIreguao En Villa MaÑIguales,188,-45.15,-72.1167,113.0,Rio Aisen,1130.0,Rio Maniguales
11302002,DGA,dga_web,Irehuao,535,-45.2706,-71.7092,113.0,Rio Aisen,1130.0,Rio Maniguales
11304001,DGA,dga_web,Villa Maihuales,150,-45.1733,-72.1478,113.0,Rio Aisen,1130.0,Rio Maniguales
11307001,DGA,dga_web,Rio Emperador Guillermo Antes Junta MaÑIguales,180,-45.2333,-72.2333,113.0,Rio Aisen,1130.0,Rio Maniguales
11307002,DGA,dga_web,Villa Ortega,550,-45.3719,-71.9822,113.0,Rio Aisen,1130.0,Rio Maniguales
11308001,DGA,dga_web,Rio Magniguales Antes Junta Rio Simpson,20,-45.3833,-72.4667,113.0,Rio Aisen,1130.0,Rio Maniguales
11310001,DGA,dga_web,Rio Huemules Frente Cerro Galera,510,-45.8372,-71.7769,113.0,Rio Aisen,1131.0,Rio Simpson
11310002,DGA,dga_web,Rio Oscuro En Camino Cerro Portezuelo,525,-45.9069,-71.7081,113.0,Rio Aisen,1131.0,Rio Simpson
11310003,DGA,dga_web,Rio Blanco Chico Antes Junta Oscuro,515,-45.8853,-71.7211,113.0,Rio Aisen,1131.0,Rio Simpson
11312001,DGA,dga_web,Rio Blanco Antes Junta Huemules,450,-45.8117,-71.9153,113.0,Rio Aisen,1131.0,Rio Simpson
11314001,DGA,dga_web,Rio Pollux Antes Junta Simpson,340,-45.6167,-72.1333,113.0,Rio Aisen,1131.0,Rio Simpson
11315001,DGA,dga_web,Rio Claro En Pisicultura,224,-45.5667,-72.0833,113.0,Rio Aisen,1131.0,Rio Simpson
11316001,DGA,dga_web,Rio Coyhaique En Tejas Verdes,335,-45.5667,-72.0333,113.0,Rio Aisen,1131.0,Rio Simpson
11316003,DGA,dga_web,Coyhaique (Escuela Agricola),343,-45.5739,-72.0286,113.0,Rio Aisen,1131.0,Rio Simpson
11316004,DGA,dga_web,Coyhaique Alto,730,-45.4803,-71.6044,113.0,Rio Aisen,1131.0,Rio Simpson
11317001,DGA,dga_web,Rio Simpson Bajo Junta Coyhaique,210,-45.5517,-72.0681,113.0,Rio Aisen,1131.0,Rio Simpson
11317005,DGA,dga_web,Coyhaique Conaf,340,-45.5511,-72.0589,113.0,Rio Aisen,1131.0,Rio Simpson
11318001,DGA,dga_web,Rio Simpson Antes Junta Rio Magniguales,20,-45.4,-72.4833,113.0,Rio Aisen,1131.0,Rio Simpson
11318002,DGA,dga_web,El Balseo,25,-45.4036,-72.4878,113.0,Rio Aisen,1131.0,Rio Simpson
11332001,DGA,dga_web,Desague En Lago Monreal En Desague,0,-45.75,-72.2833,113.0,Rio Aisen,1133.0,Rio Riesco
11335001,DGA,dga_web,Rio Blanco Bajo Junta Riesco,16,-45.5333,-72.6667,113.0,Rio Aisen,1133.0,Rio Riesco
11335002,DGA,dga_web,Rio Blanco En Desague Lago Caro,270,-45.7833,-72.6167,113.0,Rio Aisen,1133.0,Rio Riesco
11337001,DGA,dga_web,Rio Blanco Antes Junta Rio Aysen,21,-45.4,-72.6,113.0,Rio Aisen,1133.0,Rio Riesco
11342001,DGA,dga_web,Rio Aysen En Puerto Aysen,32,-45.4058,-72.6231,113.0,Rio Aisen,1134.0,Rio Aisen Entre Rio Riesco Y Desembocadura
11342002,DGA,dga_web,Puerto Aysen,10,-45.4006,-72.7,113.0,Rio Aisen,1134.0,Rio Aisen Entre Rio Riesco Y Desembocadura
11400001,DGA,dga_web,Puerto Chacabuco,20,-45.4644,-72.8178,114.0,Costeras E Islas Entre R Aisen Y R Baker Y Canal Gral. Martinez,1140.0,Costeras Entre R.  Aisen Y R.  Huemules (Incl.)
11405001,DGA,dga_web,Rio Lagunillas En Desague Lago Condor,10,-45.4667,-72.9333,114.0,Costeras E Islas R Aisen R Baker C. Gral. Martinez,1140.0,Costeras Entre Rio Aisen Y Rio Huemules (Incl.)
11440000,DGA,dga_web,Glaciar San Rafael,8,-46.6433,-73.8575,114.0,Costeras E Islas Entre R Aisen Y R Baker Y Canal Gral. Martinez,1144.0,Costera Y Ventisqueros Entre R.  Exploradores Y Vent. Benito
11500002,DGA,dga_web,Rio Ibanez Antes Junta Cajon,356,-46.0861,-72.5819,115.0,Rio Baker,1150.0,Rio Ibanez
11503001,DGA,dga_web,Villa Cerro Castillo,345,-46.1206,-72.1539,115.0,Rio Baker,1150.0,R. Ibanez
11504001,DGA,dga_web,Rio Claro Antes Junta Rio Ibagnez,0,-46.25,-71.9667,115.0,Rio Baker,1150.0,Rio Ibanez
11505001,DGA,dga_web,Rio Ibaez En Desembocadura,220,-46.2692,-71.9908,115.0,Rio Baker,1150.0,R. Ibanez
11511001,DGA,dga_web,Puerto Ibaez,215,-46.2892,-71.9336,115.0,Rio Baker,1151.0,Vertiente N.  Lago J. Miguel Carrera (Exc.  R. Iba$?Ez)
11513001,DGA,dga_web,Bahia Murta,240,-46.4619,-72.6686,115.0,Rio Baker,1151.0,Vertiente N.  Lago J. Miguel Carrera (Exc.  R. Iba$?Ez)
11514001,DGA,dga_web,Rio Murta En Desembocadura,219,-46.4333,-72.7,115.0,Rio Baker,1151.0,Vertiente N Lago G. Carrera (Exc. Rio Ibanez)
11517002,DGA,dga_web,Lago General Carrera En Desage,210,-46.8456,-72.8033,115.0,Rio Baker,1151.0,Vertiente N.  Lago J. Miguel Carrera (Exc.  R. Iba$?Ez)
11520002,DGA,dga_web,Rio Jeinimeni En Chile Chico,267,-46.5836,-71.6672,115.0,Rio Baker,1152.0,Vertiente Sur Lago General Carrera
11521001,DGA,dga_web,Rio El Bagno En Chile Chico,414,-46.5522,-71.8917,115.0,Rio Baker,1152.0,Vertiente Sur Lago General Carrera
11521002,DGA,dga_web,Chile Chico,215,-46.5436,-71.7089,115.0,Rio Baker,1152.0,Vertiente Sur Lago Jose Miguel Carrera
11521005,DGA,dga_web,Lago General Carrera Fachinal,18,-46.5425,-72.2267,115.0,Rio Baker,1152.0,Vertiente Sur Lago General Carrera
11523001,DGA,dga_web,Puerto Guadal,210,-46.8428,-72.7008,115.0,Rio Baker,1152.0,Vertiente Sur Lago Jose Miguel Carrera
11523002,DGA,dga_web,Lago General Carrera En Puerto Guadal,205,-46.8411,-72.6975,115.0,Rio Baker,1152.0,Vertiente Sur Lago General Carrera
11530000,DGA,dga_web,Rio Baker En Desague Lago Bertrand,200,-47.0667,-72.8,115.0,Rio Baker,1153.0,Rio Baker Des. Lago G. Carrera Y R De La Colonia
11532000,DGA,dga_web,Rio Nef Antes Junta Estero El Revalse,281,-47.1378,-73.0869,115.0,Rio Baker,1153.0,R. Baker Entre Desague L. J. M. Carrera Y R. De La Colonia
11533001,DGA,dga_web,Estancia Valle Chacabuco,343,-47.1164,-72.4844,115.0,Rio Baker,1153.0,R. Baker Entre Desague L. J. M. Carrera Y R. De La Colonia
11536001,DGA,dga_web,Rio Cochrane En Cochrane,140,-47.2517,-72.5644,115.0,Rio Baker,1153.0,R. Baker Entre Desague L. J. M. Carrera Y R. De La Colonia
11536003,DGA,dga_web,Aerodromo Cochrane,200,-47.2442,-72.5831,115.0,Rio Baker,1153.0,R. Baker Entre Desague L. J. M. Carrera Y R. De La Colonia
11536004,DGA,dga_web,Rio Baker En Angostura Chacabuco,160,-47.1414,-72.7258,115.0,Rio Baker,1153.0,R. Baker Entre Desague L. J. M. Carrera Y R. De La Colonia
11540000,DGA,dga_web,Lago Cachet 2 En Glaciar Colonia,427,-47.1981,-73.25,115.0,Rio Baker,1154.0,R. Baker Entre Arriba R. De La Colonia Y Desembocadura
11541000,DGA,dga_web,Rio Colonia En Nacimiento,146,-47.3392,-73.1147,115.0,Rio Baker,1154.0,R. Baker Entre Arriba R. De La Colonia Y Desembocadura
11542001,DGA,dga_web,Rio Baker En Colonia,105,-47.35,-72.85,115.0,Rio Baker,1154.0,Rio Baker Entre Arriba Rio De La Colonia Y Desemb.
11545000,DGA,dga_web,Rio Baker Bajo ÑAdis,45,-47.5,-72.975,115.0,Rio Baker,1154.0,Rio Baker Entre Arriba Rio De La Colonia Y Desemb.
11546001,DGA,dga_web,Caleta Tortel,10,-47.7997,-73.5358,115.0,Rio Baker,1154.0,R. Baker Entre Arriba R. De La Colonia Y Desembocadura
11700001,DGA,dga_web,Rio Mayer Reten,450,-48.2083,-72.3228,117.0,Rio Pascua,1170.0,Lago O'Higgins
11701001,DGA,dga_web,Rio Mayer En Desembocadura,350,-48.4833,-72.6,117.0,Rio Pascua,1170.0,Lago O'Higgins
11701002,DGA,dga_web,Villa Ohiggins,270,-48.4692,-72.5589,117.0,Rio Pascua,1170.0,Lago O'Higgins
11702000,DGA,dga_web,Lago Ohiggins En Villa Ohiggins,300,-48.5169,-72.5953,117.0,Rio Pascua,1170.0,Lago O'Higgins
11704001,DGA,dga_web,Candelario Mancilla,300,-48.8775,-72.7394,117.0,Rio Pascua,1170.0,Lago O'Higgins
11706000,DGA,dga_web,Glaciar Ohiggins,5,-48.9272,-73.1172,117.0,Rio Pascua,1170.0,Lago O'Higgins
11710000,DGA,dga_web,Rio Pascua En Desague Lago O'Higgins,260,-48.3775,-72.9589,117.0,Rio Pascua,1171.0,Rio Pascua
11711000,DGA,dga_web,Rio Pascua Ante Junta Rio Quetru,20,-48.1592,-73.0889,117.0,Rio Pascua,1171.0,Rio Pascua
11800000,DGA,dga_web,Jorge Montt,170,-48.2536,-73.4597,118.0,Costeras Entre R. Pascua Limite Region. Archipielago Guayeco,1180.0,Costeras Entre Rio Pascua Y Limite Region
12000000,DGA,dga_web,Glaciar Tempano,20,-48.8347,-74.1831,120.0,Costeras Entre Limite Region Y Seno Andrew,1200.0,Costeras Del Canal Mesier Entre Limite Region Y Peninsula Exmouth
1200002,DGA,dga_web,Villa Industrial (Tacora),4080,-17.7719,-69.7244,12.0,Rio Lluta,120.0,Rio Lluta Alto
1200003,DGA,dga_web,Humapalca,3980,-17.835,-69.7039,12.0,Rio Lluta,120.0,Rio Lluta Alto
1201001,DGA,dga_web,Rio Colpitas En Alcerreca,3251,-17.9919,-69.6256,12.0,Rio Lluta,120.0,Rio Lluta Alto
1201002,DGA,dga_web,Rio Caracarani En Alcerreca,3253,-17.9833,-69.6283,12.0,Rio Lluta,120.0,Rio Lluta Alto
1201003,DGA,dga_web,Rio Lluta En Alcerreca,3550,-18.0036,-69.6331,12.0,Rio Lluta,120.0,Rio Lluta Alto
1201005,DGA,dga_web,Rio Caracarani En Humapalca,3908,-17.8428,-69.6994,12.0,Rio Lluta,120.0,Rio Lluta Alto
1201010,DGA,dga_web,Alcerreca,3990,-17.9931,-69.6594,12.0,Rio Lluta,120.0,Rio Lluta Alto
1202001,DGA,dga_web,Rio Lluta En Jamiraya,0,-18.25,-69.6667,12.0,Rio Lluta,120.0,Rio Lluta Alto
1202009,DGA,dga_web,Pacollo,4185,-18.1769,-69.5092,12.0,Rio Lluta,120.0,Rio Lluta Alto
1202010,DGA,dga_web,Putre,3545,-18.1992,-69.5603,12.0,Rio Lluta,120.0,Rio Lluta Alto
1202011,DGA,dga_web,Las Cuevas Conaf,4060,-18.2106,-69.5103,12.0,Rio Lluta,120.0,Rio Lluta Alto
1202012,DGA,dga_web,Putre (Dcp),3560,-18.195,-69.5589,12.0,Rio Lluta,120.0,Rio Lluta Alto
1210001,DGA,dga_web,Rio Lluta En Tocontasi,1850,-18.3667,-69.9003,12.0,Rio Lluta,121.0,Rio Lluta Bajo
1210002,DGA,dga_web,Rio Lluta En El Molino,0,-18.3753,-69.9467,12.0,Rio Lluta,121.0,Rio Lluta Bajo
1210003,DGA,dga_web,Rio Lluta En Chapisca,0,-18.3667,-69.8858,12.0,Rio Lluta,121.0,Rio Lluta Bajo
1211001,DGA,dga_web,Rio Lluta En Panamericana,10,-18.4,-70.3,12.0,Rio Lluta,121.0,Rio Lluta Bajo
1211002,DGA,dga_web,Rio Lluta En Puente Viejo Km 15,11,-18.4036,-70.2683,12.0,Rio Lluta,121.0,Rio Lluta Bajo
1211006,DGA,dga_web,Lluta,290,-18.4103,-70.1692,12.0,Rio Lluta,121.0,Rio Lluta Bajo
12125001,DGA,dga_web,Puerto Eden,10,-49.1228,-74.4069,121.0,Islas Entre Limite Region Y Canal Ancho Y Estrecho De La Concepcion,1212.0,Isla Wellington E Isla Entre Esta Y El Oriente
12125002,DGA,dga_web,Rio Punta Eva En Puerto Eden,10,-49.1103,-74.4119,121.0,Islas Entre Limite Region Y Canal Ancho Y Estrecho De La Concepcion,1212.0,Isla Wellington E Isla Entre Esta Y El Oriente
12273000,DGA,dga_web,Glaciar Balmaceda,0,-51.4197,-73.1,122.0,Costeras Entre Seno Andrew Y R. Hollemberg E Islas Al Oriente,1227.0,Costeras Entre Peninsula Roca Y Rio Serrano
12280001,DGA,dga_web,Rio Paine En Parque Nacional,46,-50.9794,-72.8006,122.0,Costeras Seno Andrew  R Hollemberg,1228.0,Rio Serrano
12280002,DGA,dga_web,Rio Paine En Parque Nacional 2,90,-50.9603,-72.7925,122.0,Costeras Entre Seno Andrew Y R. Hollemberg E Islas Al Oriente,1228.0,Rio Serrano
12280004,DGA,dga_web,Lago Dickson,200,-50.8228,-73.1125,122.0,Costeras Entre Seno Andrew Y R. Hollemberg E Islas Al Oriente,1228.0,Rio Serrano
12280006,DGA,dga_web,Lago Paine,440,-50.8414,-72.9047,122.0,Costeras Entre Seno Andrew Y R. Hollemberg E Islas Al Oriente,1228.0,Rio Serrano
12283001,DGA,dga_web,Cerro Guido,230,-50.8986,-72.3314,122.0,Costeras Entre Seno Andrew Y R. Hollemberg E Islas Al Oriente,1228.0,Rio Serrano
12283002,DGA,dga_web,Estancia Rio Paine,150,-51.2361,-72.9022,122.0,Costeras Entre Seno Andrew Y R. Hollemberg E Islas Al Oriente,1228.0,Rio Serrano
12283003,DGA,dga_web,Lago Pehoe,40,-51.0783,-72.9933,122.0,Costeras Entre Seno Andrew Y R. Hollemberg E Islas Al Oriente,1228.0,Rio Serrano
12283004,DGA,dga_web,Laguna Azul,240,-50.8789,-72.7328,122.0,Costeras Entre Seno Andrew Y R. Hollemberg E Islas Al Oriente,1228.0,Rio Serrano
12284002,DGA,dga_web,Rio Baguales En Cerro Guido,80,-51.0167,-72.4833,122.0,Costeras Seno Andrew  R Hollemberg,1228.0,Rio Serrano
12284003,DGA,dga_web,Rio Vizcachas En Cerro Guido,80,-51.0167,-72.4833,122.0,Costeras Seno Andrew  R Hollemberg,1228.0,Rio Serrano
12284004,DGA,dga_web,Rio Las Chinas En Pte Carretero,65,-51.2167,-72.45,122.0,Costeras Seno Andrew  R Hollemberg,1228.0,Rio Serrano
12284005,DGA,dga_web,Rio Don Guillermo En Cerro Castillo,125,-51.2667,-72.4833,122.0,Costeras Seno Andrew  R Hollemberg,1228.0,Rio Serrano
12284006,DGA,dga_web,Rio Las Chinas En Cerro Guido,75,-51.0508,-72.5169,122.0,Costeras Entre Seno Andrew Y R. Hollemberg E Islas Al Oriente,1228.0,Rio Serrano
12284007,DGA,dga_web,Rio Las Chinas Antes Desague Del Toro,50,-51.25,-72.5167,122.0,Costeras Seno Andrew  R Hollemberg,1228.0,Rio Serrano
12284009,DGA,dga_web,Lago Sarmiento,110,-51.0108,-72.7106,122.0,Costeras Entre Seno Andrew Y R. Hollemberg E Islas Al Oriente,1228.0,Rio Serrano
12284010,DGA,dga_web,Cerro Castillo,130,-51.26,-72.3272,122.0,Costeras Entre Seno Andrew Y R. Hollemberg E Islas Al Oriente,1228.0,Rio Serrano
12285001,DGA,dga_web,Rio Chorrillos Tres Pasos Ruta N 9,158,-51.45,-72.4667,122.0,Costeras Seno Andrew  R Hollemberg,1228.0,Rio Serrano
12285003,DGA,dga_web,Rio Tres Pasos En Desague Lago Toro,46,-51.3097,-72.6206,122.0,Costeras Seno Andrew  R Hollemberg,1228.0,Rio Serrano
12286001,DGA,dga_web,Torres Del Paine,25,-51.1842,-72.9669,122.0,Costeras Entre Seno Andrew Y R. Hollemberg E Islas Al Oriente,1228.0,Rio Serrano
12286002,DGA,dga_web,Rio Rincon En Ruta Y-290,36,-51.3139,-72.8292,122.0,Costeras Entre Seno Andrew Y R. Hollemberg E Islas Al Oriente,1228.0,Rio Serrano
12287001,DGA,dga_web,Rio Grey Antes Junta Serrano,50,-51.1833,-73.0167,122.0,Costeras Seno Andrew  R Hollemberg,1228.0,Rio Serrano
12287002,DGA,dga_web,Lago Grey,50,-51.1114,-73.13,122.0,Costeras Entre Seno Andrew Y R. Hollemberg E Islas Al Oriente,1228.0,Rio Serrano
12288000,DGA,dga_web,Glaciar Tindall,345,-51.1158,-73.2825,122.0,Costeras Entre Seno Andrew Y R. Hollemberg E Islas Al Oriente,1228.0,Rio Serrano
12288002,DGA,dga_web,Rio Geikie En Desembocadura,40,-51.3019,-73.2075,122.0,Costeras Seno Andrew  R Hollemberg,1228.0,Rio Serrano
12288003,DGA,dga_web,Rio Tindall En Desembocadura,18,-51.2564,-73.1561,122.0,Costeras Entre Seno Andrew Y R. Hollemberg E Islas Al Oriente,1228.0,Rio Serrano
12288004,DGA,dga_web,Rio Caadon 1 En Desembocadura,60,-51.3128,-73.275,122.0,Costeras Entre Seno Andrew Y R. Hollemberg E Islas Al Oriente,1228.0,Rio Serrano
12289001,DGA,dga_web,Rio Serrano En Desembocadura,25,-51.3328,-73.1092,122.0,Costeras Entre Seno Andrew Y R. Hollemberg E Islas Al Oriente,1228.0,Rio Serrano
12289002,DGA,dga_web,Rio Serrano En Desague Lago Del Toro,30,-51.2,-72.9333,122.0,Costeras Seno Andrew  R Hollemberg,1228.0,Rio Serrano
12289003,DGA,dga_web,Rio Serrano Antes Junta Grey,40,-51.2167,-72.9833,122.0,Costeras Seno Andrew  R Hollemberg,1228.0,Rio Serrano
12291001,DGA,dga_web,Rio Prat En Desembocadura,20,-51.5581,-72.7347,122.0,Costeras Seno Andrew  R Hollemberg,1229.0,Costeras Entre Rio Serrano Y Rio Hollenberg
12293001,DGA,dga_web,Puerto Natales,45,-51.7336,-72.4781,122.0,Costeras Entre Seno Andrew Y R. Hollemberg E Islas Al Oriente,1229.0,Costeras Entre Rio Serrano Y Rio Hollenberg
12400001,DGA,dga_web,Casas Viejas,230,-51.6975,-72.3297,124.0,Costeras E Islas Entre R Hollemberg Golfo Alte. Laguna Blanca,1240.0,Costeras Del Golfo Almirante Montt Y Fiordo Obstruccion
12400002,DGA,dga_web,Rubens En Ruta N. 9,190,-52.0389,-71.9419,124.0,Costeras E Islas Entre R Hollemberg Golfo Alte. Laguna Blanca,1240.0,Costeras Del Golfo Almirante Montt Y Fiordo Obstruccion
12400003,DGA,dga_web,Rio Tranquilo En Ruta N 9,30,-51.8233,-72.1592,124.0,Costeras E Islas Entre R Hollemberg Golfo Alte. Laguna Blanca,1240.0,Costeras Del Golfo Almirante Montt Y Fiordo Obstruccion
12400004,DGA,dga_web,Rio Hollemberg En Desembocadura,14,-51.9056,-72.4236,124.0,Costeras E Islas R Hollemberg  Laguna Blanca,1240.0,Costeras Del Golfo Almirante Montt Y F Obstruccion
12402000,DGA,dga_web,Lago Anibal Pinto,51,-52.0911,-72.4361,124.0,Costeras E Islas Entre R Hollemberg Golfo Alte. Laguna Blanca,1240.0,Costeras Del Golfo Almirante Montt Y Fiordo Obstruccion
12403000,DGA,dga_web,Seno Obstruccin,4,-52.2094,-72.4783,124.0,Costeras E Islas Entre R Hollemberg Golfo Alte. Laguna Blanca,1240.0,Costeras Del Golfo Almirante Montt Y Fiordo Obstruccion
12440001,DGA,dga_web,Rocallosas,10,-52.6514,-71.9631,124.0,Costeras E Islas Entre R Hollemberg Golfo Alte. Laguna Blanca,1244.0,Isla Riesco
12448001,DGA,dga_web,Rio Grande En Isla Riesco,5,-52.9964,-71.8706,124.0,Costeras E Islas Entre R Hollemberg Golfo Alte. Laguna Blanca,1244.0,Isla Riesco
12449001,DGA,dga_web,Isla Riesco,10,-52.8819,-71.5706,124.0,Costeras E Islas Entre R Hollemberg Golfo Alte. Laguna Blanca,1244.0,Isla Riesco
12449002,DGA,dga_web,Cordillera Riesco,456,-52.8425,-71.7642,124.0,Costeras E Islas Entre R Hollemberg Golfo Alte. Laguna Blanca,1244.0,Isla Riesco
12452001,DGA,dga_web,Rio Perez En Desembocadura,20,-52.5492,-71.9747,124.0,Costeras E Islas Entre R Hollemberg Golfo Alte. Laguna Blanca,1245.0,Costeras Continentales Del Seno Skyring
12452002,DGA,dga_web,Rio Perez,5,-52.5486,-71.9603,124.0,Costeras E Islas Entre R Hollemberg Golfo Alte. Laguna Blanca,1245.0,Costeras Continentales Del Seno Skyring
12454001,DGA,dga_web,Rio Verde,10,-52.6042,-71.5019,124.0,Costeras E Islas Entre R Hollemberg Golfo Alte. Laguna Blanca,1245.0,Costeras Continentales Del Seno Skyring
12530001,DGA,dga_web,San Gregorio,3,-52.5664,-70.0706,125.0,Costeras Entre Lag.  Blanca(Inc) Seno Otway Canal Jeronimo Y Magallanes,1253.0,Costeras Entre R. Santa Susana Y Chorrillo Kimiri Aike
12540001,DGA,dga_web,Ohiggins Villa,70,-52.3161,-69.6881,125.0,Costeras Entre Lag.  Blanca(Inc) Seno Otway Canal Jeronimo Y Magallanes,1254.0,Costeras Entre Chorrillo Kimiri Aike (Incl.) Y Canadon Grande (Incl.)
12561001,DGA,dga_web,Rio Grande En Seno Otway,22,-53.1089,-71.3036,125.0,Costeras L Blanca E Magallanes,1256.0,Costeras Occidentales Peninsula Brunswick
12563001,DGA,dga_web,Rio Calete En Seno Otway,15,-53.2069,-71.6158,125.0,Costeras L Blanca E Magallanes,1256.0,Costeras Occidentales Peninsula Brunswick
12582001,DGA,dga_web,Rio San Juan En Desembocadura,8,-53.65,-70.9667,125.0,Costeras Entre Lag.  Blanca(Inc) Seno Otway Canal Jeronimo Y Magallanes,1258.0,Costeras E Islas Orientales De La Peninsula Brunswick
12582002,DGA,dga_web,San Juan,5,-53.6514,-70.9578,125.0,Costeras Entre Lag.  Blanca(Inc) Seno Otway Canal Jeronimo Y Magallanes,1258.0,Costeras E Islas Orientales De La Peninsula Brunswick
12582003,DGA,dga_web,Lago Parrillar,320,-53.4025,-71.2497,125.0,Costeras Entre Lag.  Blanca(Inc) Seno Otway Canal Jeronimo Y Magallanes,1258.0,Costeras E Islas Orientales De La Peninsula Brunswick
12583001,DGA,dga_web,La Baglina,10,-53.6208,-70.9242,125.0,Costeras Entre Lag.  Blanca(Inc) Seno Otway Canal Jeronimo Y Magallanes,1258.0,Costeras E Islas Orientales De La Peninsula Brunswick
12585001,DGA,dga_web,Rio Tres Brazos Antes Bt. Sendos,0,-53.2789,-70.9789,125.0,Costeras L Blanca E Magallanes,1258.0,Costeras E Islas Orientales De La P Brunswick
12585002,DGA,dga_web,Rio Legnadura Antes Bt Sendos,0,-53.2217,-70.9697,125.0,Costeras L Blanca E Magallanes,1258.0,Costeras E Islas Orientales De La P Brunswick
12585003,DGA,dga_web,Leadura Alta,400,-53.2325,-71.1178,125.0,Costeras Entre Lag.  Blanca(Inc) Seno Otway Canal Jeronimo Y Magallanes,1258.0,Costeras E Islas Orientales De La Peninsula Brunswick
12586001,DGA,dga_web,Rio Las Minas En Bt. Sendos,185,-53.1381,-70.9875,125.0,Costeras Entre Lag.  Blanca(Inc) Seno Otway Canal Jeronimo Y Magallanes,1258.0,Costeras E Islas Orientales De La Peninsula Brunswick
12586004,DGA,dga_web,Punta Arenas,5,-53.1233,-70.8772,125.0,Costeras Entre Lag.  Blanca(Inc) Seno Otway Canal Jeronimo Y Magallanes,1258.0,Costeras E Islas Orientales De La Peninsula Brunswick
12586005,DGA,dga_web,Laguna Lynch,140,-53.1444,-70.9831,125.0,Costeras Entre Lag.  Blanca(Inc) Seno Otway Canal Jeronimo Y Magallanes,1258.0,Costeras E Islas Orientales De La Peninsula Brunswick
12586006,DGA,dga_web,Cerro Mirador,580,-53.1842,-71.0833,125.0,Costeras Entre Lag.  Blanca(Inc) Seno Otway Canal Jeronimo Y Magallanes,1258.0,Costeras E Islas Orientales De La Peninsula Brunswick
12586007,DGA,dga_web,Las Minas,155,-53.1442,-70.9831,125.0,Costeras Entre Lag.  Blanca(Inc) Seno Otway Canal Jeronimo Y Magallanes,1258.0,Costeras E Islas Orientales De La Peninsula Brunswick
12586009,DGA,dga_web,Canal De Trasvase Estero Llau-Llau,80,-53.125,-70.9358,125.0,Costeras Entre Lag.  Blanca(Inc) Seno Otway Canal Jeronimo Y Magallanes,1258.0,Costeras E Islas Orientales De La Peninsula Brunswick
12586010,DGA,dga_web,Magdalena Giglio 2,432,-53.1397,-71.0561,125.0,Costeras Entre Lag.  Blanca(Inc) Seno Otway Canal Jeronimo Y Magallanes,1258.0,Costeras E Islas Orientales De La Peninsula Brunswick
12587000,DGA,dga_web,Bitsch Alto,328,-53.0919,-71.0025,125.0,Costeras Entre Lag.  Blanca(Inc) Seno Otway Canal Jeronimo Y Magallanes,1258.0,Costeras E Islas Orientales De La Peninsula Brunswick
12600001,DGA,dga_web,Rio Rubens En Ruta N 9,180,-52.03,-71.9414,126.0,Vertiente Del Atlantico,1260.0,Vertiente Del Atlantico
12620000,DGA,dga_web,Penitente Alto,290,-52.2092,-71.6806,126.0,Vertiente Del Atlantico,1262.0,Rio Penitente
12622001,DGA,dga_web,Rio Penitente En Morro Chico,170,-52.0511,-71.4247,126.0,Vertiente Del Atlantico,1262.0,Rio Penitente
12622002,DGA,dga_web,Villa Tehuelche,190,-52.4414,-71.4022,126.0,Vertiente Del Atlantico,1262.0,Rio Penitente
12640001,DGA,dga_web,Teniente Merino,160,-52.0342,-70.7333,126.0,Vertiente Del Atlantico,1264.0,Rio Gallegos Chico
12660001,DGA,dga_web,Rio Ci-Aike Antes Frontera,142,-52.0431,-70.0581,126.0,Vertiente Del Atlantico,1266.0,Rio Cigike Y Rio De Los Pozuelos
12680001,DGA,dga_web,Monte Aymond,160,-52.1644,-69.6078,126.0,Vertiente Del Atlantico,1268.0,Costeras Entre Canadon Seco Y Canadon Grande
12802001,DGA,dga_web,Rio Side En Cerro Sombrero,10,-52.7681,-69.2772,128.0,Tierra Del Fuego,1280.0,Costeras Del Estrecho Magallanes Entre Frontera Y Cabo Monmouth
12802002,DGA,dga_web,Cerro Sombrero,30,-52.7764,-69.2928,128.0,Tierra Del Fuego,1280.0,Costeras Del Estrecho Magallanes Entre Frontera Y Cabo Monmouth
12803000,DGA,dga_web,Bahia Lomas,10,-52.5472,-69.3269,128.0,Tierra Del Fuego,1280.0,Costeras Del Estrecho Magallanes Entre Frontera Y Cabo Monmouth
12805001,DGA,dga_web,Rio Oscar En Bahia San Felipe,10,-52.8497,-69.7536,128.0,Tierra Del Fuego,1280.0,"Costeras Del E Magallanes, Cabo Esp. Santo Y C. Mo"
12806001,DGA,dga_web,Rio Oro En Bahia San Felipe,10,-52.8461,-69.8944,128.0,Tierra Del Fuego,1280.0,"Costeras Del E Magallanes, Cabo Esp. Santo Y C. Mo"
12806004,DGA,dga_web,Bahia San Felipe,10,-52.8697,-69.9319,128.0,Tierra Del Fuego,1280.0,Costeras Del Estrecho Magallanes Entre Frontera Y Cabo Monmouth
12806005,DGA,dga_web,Sarita En Bahia San Felipe,15,-52.8675,-69.9,128.0,Tierra Del Fuego,1280.0,"Costeras Del E Magallanes, Cabo Esp. Santo Y C. Mo"
12809001,DGA,dga_web,Porvenir,35,-53.2908,-70.37,128.0,Tierra Del Fuego,1280.0,Costeras Del Estrecho Magallanes Entre Frontera Y Cabo Monmouth
12815001,DGA,dga_web,Onaisin En Maria Cristina,30,-53.3056,-69.2675,128.0,Tierra Del Fuego,1281.0,Costeras Bahia Inutil (Entre Cabo Monmouth Y Cabo Nose)
12816001,DGA,dga_web,Cameron,10,-53.6369,-69.6506,128.0,Tierra Del Fuego,1281.0,Costeras Bahia Inutil (Entre Cabo Monmouth Y Cabo Nose)
12820001,DGA,dga_web,Rio Caleta En Tierra Del Fuego,280,-53.8586,-69.9989,128.0,Tierra Del Fuego,1282.0,Costeras Entre Cabo Nose Y R. Azopardo (Incl.)
12820002,DGA,dga_web,Puerto Yartou,5,-53.8853,-70.1408,128.0,Tierra Del Fuego,1282.0,Costeras Entre Cabo Nose Y R. Azopardo (Incl.)
12821000,DGA,dga_web,Rio Condor,10,-53.9964,-70.0781,128.0,Tierra Del Fuego,1282.0,Costeras Entre Cabo Nose Y R. Azopardo (Incl.)
12825002,DGA,dga_web,Rio Azopardo En Desembocadura,32,-54.5028,-68.8244,128.0,Tierra Del Fuego,1282.0,Costeras Entre Cabo Nose Y R. Azopardo (Incl.)
12861001,DGA,dga_web,Rio Cullen En Frontera,0,-52.8453,-68.6317,30.0,Tierra Del Fuego,300.0,Cuencas Atlanticas Hasta Desde Cabo Esp. Santo Has
12863001,DGA,dga_web,San Sebastian,20,-53.3217,-68.6614,128.0,Tierra Del Fuego,1286.0,Cuencas Atlanticas Hasta Frontera Entre Arroyo Alfa (Incl.) Y Afluentes R. Grande (Arg.)
12863002,DGA,dga_web,Rio San Martin En San Sebastian,0,-53.3164,-68.6511,30.0,Tierra Del Fuego,300.0,Cuencas Atlanticas Hasta Desde Cabo Esp. Santo Has
12865001,DGA,dga_web,Rio Chico En Ruta Y-895,0,-53.5436,-68.6908,30.0,Tierra Del Fuego,300.0,Cuencas Atlanticas Hasta Desde Cabo Esp. Santo Has
12872001,DGA,dga_web,Rio Herminita En Ruta Y-895,0,-53.8056,-68.6725,128.0,Tierra Del Fuego,1287.0,Afluentes Rio Grande Y Cuencas Cerradas
12873001,DGA,dga_web,Russfin,225,-53.7594,-69.1892,128.0,Tierra Del Fuego,1287.0,Afluentes Rio Grande Y Cuencas Cerradas
12875000,DGA,dga_web,Lago Blanco,120,-54.0533,-68.9578,128.0,Tierra Del Fuego,1287.0,Afluentes Rio Grande Y Cuencas Cerradas
12876001,DGA,dga_web,Rio Grande En Tierra Del Fuego,100,-53.8928,-68.8844,128.0,Tierra Del Fuego,1287.0,Afluentes Rio Grande Y Cuencas Cerradas
12876002,DGA,dga_web,Seccion Rio Grande,130,-53.8967,-68.9183,128.0,Tierra Del Fuego,1287.0,Afluentes Rio Grande Y Cuencas Cerradas
12876003,DGA,dga_web,Pampa Huanaco,150,-54.0497,-68.7997,128.0,Tierra Del Fuego,1287.0,Afluentes Rio Grande Y Cuencas Cerradas
12876004,DGA,dga_web,Rio Catalina En Pampa Guanacos,0,-54.0411,-68.7975,128.0,Tierra Del Fuego,1287.0,Afluentes Rio Grande Y Cuencas Cerradas
12878001,DGA,dga_web,Rio Rasmussen En Frontera (Estancia VicuÑA),0,-54.0181,-68.6528,128.0,Tierra Del Fuego,1287.0,Afluentes Rio Grande Y Cuencas Cerradas
12878002,DGA,dga_web,Bahia Yendegaia,10,-54.8817,-68.6825,128.0,Tierra Del Fuego,1287.0,Afluentes Rio Grande Y Cuencas Cerradas
12879000,DGA,dga_web,Lago Deseado,170,-54.3378,-68.8242,128.0,Tierra Del Fuego,1287.0,Afluentes Rio Grande Y Cuencas Cerradas
12930001,DGA,dga_web,Rio Robalo En Puerto Williams,80,-54.9469,-67.6392,129.0,Islas Al Sur Del Canal Beagle Y Territorio Antartico,1293.0,Islas Navarino Y Gable
12930002,DGA,dga_web,Lago Navarino,45,-55.0558,-67.2994,129.0,Islas Al Sur Del Canal Beagle Y Territorio Antartico,1293.0,Islas Navarino Y Gable
12930003,DGA,dga_web,Robalo Alto,360,-54.9769,-67.6744,129.0,Islas Al Sur Del Canal Beagle Y Territorio Antartico,1293.0,Islas Navarino Y Gable
12930004,DGA,dga_web,Puerto Navarino,10,-54.9256,-68.3236,129.0,Islas Al Sur Del Canal Beagle Y Territorio Antartico,1293.0,Islas Navarino Y Gable
12930005,DGA,dga_web,Puerto Toro,10,-55.0822,-67.0758,129.0,Islas Al Sur Del Canal Beagle Y Territorio Antartico,1293.0,Islas Navarino Y Gable
1300001,DGA,dga_web,Rio Ticnamar En Ticnamar,3800,-18.5325,-69.5433,13.0,Rio San Jose,130.0,"Quebrada Azapa Alta (R Seco, Tignamar Q Chusmiza)"
1300002,DGA,dga_web,Rio Laco En Cosapilla,3000,-18.4008,-68.5833,13.0,Rio San Jose,130.0,"Quebrada Azapa Alta (R Seco, Tignamar Q Chusmiza)"
1300004,DGA,dga_web,Murmuntane,3550,-18.3519,-69.5519,13.0,Rio San Jose,130.0,Azapa Alto
1300005,DGA,dga_web,Portezuelo Chapiquia,4375,-18.3272,-69.4661,13.0,Rio San Jose,130.0,Azapa Alto
1300006,DGA,dga_web,Central Chapiquia,3350,-18.3722,-69.5481,13.0,Rio San Jose,130.0,Azapa Alto
1300007,DGA,dga_web,Belen,3240,-18.4669,-69.5167,13.0,Rio San Jose,130.0,Azapa Alto
1300008,DGA,dga_web,Tignamar,3230,-18.5811,-69.4939,13.0,Rio San Jose,130.0,Azapa Alto
1300009,DGA,dga_web,Rio Ticnamar En Angostura,3010,-18.5133,-69.5656,13.0,Rio San Jose,130.0,Azapa Alto
1310001,DGA,dga_web,Rio San Jose En Livilcar,0,-18.5003,-69.7114,13.0,Rio San Jose,131.0,Rio San Jose
1310002,DGA,dga_web,Rio San Jose En Ausipar,1300,-18.5844,-69.8114,13.0,Rio San Jose,131.0,Rio San Jose
1310003,DGA,dga_web,Rio San Jose Antes Bocatoma Azapa,960,-18.5833,-69.9667,13.0,Rio San Jose,131.0,Rio San Jose
1310004,DGA,dga_web,Acueducto Azapa En Bocatoma,960,-18.5856,-69.8867,13.0,Rio San Jose,131.0,Rio San Jose
1310005,DGA,dga_web,Rio San Jose En El Molino,0,-18.425,-69.9083,13.0,Rio San Jose,131.0,Rio San Jose
1310018,DGA,dga_web,Arica Oficina,20,-18.4775,-70.3208,13.0,Rio San Jose,131.0,Rio San Jose
1310019,DGA,dga_web,Azapa,365,-18.5156,-70.1806,13.0,Rio San Jose,131.0,Rio San Jose
1310020,DGA,dga_web,La Rivera,310,-18.5283,-70.1642,13.0,Rio San Jose,131.0,Rio San Jose
1310021,DGA,dga_web,U. Del Norte,55,-18.4833,-70.2936,13.0,Rio San Jose,131.0,Rio San Jose
1310022,DGA,dga_web,El Buitre Aerodromo,110,-18.5119,-70.2842,13.0,Rio San Jose,131.0,Rio San Jose
1410004,DGA,dga_web,Rio Codpa En Cala-Cala,1745,-18.8269,-69.6669,14.0,Costeras R.San Jose-Q.Camarones,141.0,Quebrada Vitor
1410005,DGA,dga_web,Rio Codpa En Ofragia,0,-18.8333,-69.8,14.0,Costeras R.San Jose-Q.Camarones,141.0,Quebrada Vitor
1410006,DGA,dga_web,Rio Codpa En Palca,0,-18.8417,-69.6667,14.0,Costeras R.San Jose-Q.Camarones,141.0,Quebrada Vitor
1410011,DGA,dga_web,Chaca,350,-18.8169,-70.15,14.0,Costeras R. San Jose-Q.Camarones,141.0,Quebrada Vitor
1410012,DGA,dga_web,Codpa,1870,-18.8322,-69.7439,14.0,Costeras R. San Jose-Q.Camarones,141.0,Quebrada Vitor
1501001,DGA,dga_web,Caritaya Embalse,3600,-19.0247,-69.3361,15.0,Q. Rio Camarones,150.0,Rio Camarones Antes Junta Quebrada De Chiza
1502002,DGA,dga_web,Rio Camarones En Conanoxa,710,-19.0444,-69.9842,15.0,Q. Rio Camarones,150.0,Rio Camarones Antes Junta Quebrada De Chiza
1502006,DGA,dga_web,Cuya,200,-19.1117,-70.1269,15.0,Q. Rio Camarones,150.0,Rio Camarones Antes Junta Quebrada De Chiza
1502007,DGA,dga_web,Esquia,2170,-18.9417,-69.5328,15.0,Q. Rio Camarones,150.0,Rio Camarones Antes Junta Quebrada De Chiza
1502008,DGA,dga_web,Rio Camarones En Chilpe,1565,-18.9431,-69.6197,15.0,Q. Rio Camarones,150.0,Rio Camarones Antes Junta Quebrada De Chiza
1610001,DGA,dga_web,Quebrada Camigna En Umigna,2580,-19.2,-69.3333,16.0,Costeras R.Camarones-Pampa Del Tamarugal,161.0,Quebrada De Camina
1610002,DGA,dga_web,Quebrada CamiÑA En Altusa,2280,-19.2958,-69.3886,16.0,Costeras R.Camarones-Pampa Del Tamarugal,161.0,Quebrada De Camina
1610003,DGA,dga_web,Pumire,4150,-19.0953,-69.1108,16.0,Costeras R.Camarones-Pampa Del Tamarugal,161.0,Quebrada De Camina
1610004,DGA,dga_web,Q. Camia 3 Km. A. Arriba De Tarcavire,3848,-19.1181,-69.2447,16.0,Costeras R.Camarones-Pampa Del Tamarugal,161.0,Quebrada De Camina
1611001,DGA,dga_web,Camia,2500,-19.3136,-69.4172,16.0,Costeras R.Camarones-Pampa Del Tamarugal,161.0,Quebrada De Camina
1611002,DGA,dga_web,Apamilca (Camia),2600,-19.2967,-69.3867,16.0,Costeras R.Camarones-Pampa Del Tamarugal,161.0,Quebrada De Camina
1700008,DGA,dga_web,Esmeralda,1115,-20.4842,-69.3814,17.0,Pampa Del Tamarugal,170.0,Pampa Del Tamarugal
1700009,DGA,dga_web,Coposa,3760,-20.7086,-68.6942,17.0,Pampa Del Tamarugal,170.0,Pampa Del Tamarugal
1700010,DGA,dga_web,Huara En Fuerte Baquedano,1100,-20.1308,-69.7497,17.0,Pampa Del Tamarugal,170.0,Pampa Del Tamarugal
1710001,DGA,dga_web,Quebrada Camigna En Pacagua,0,-19.5667,-69.65,17.0,Pampa Del Tamarugal,171.0,Quebrada De Boga
1720001,DGA,dga_web,Rio Aroma En Alagnusca,0,-19.7419,-69.6381,17.0,Pampa Del Tamarugal,172.0,Quebrada De Aroma
1720004,DGA,dga_web,Puchultiza,4300,-19.4136,-68.9422,17.0,Pampa Del Tamarugal,172.0,Quebrada De Aroma
1720006,DGA,dga_web,Chiapa,3155,-19.5369,-69.205,17.0,Pampa Del Tamarugal,172.0,Quebrada De Aroma
1730001,DGA,dga_web,Rio Coscaya En Pampa Lirima,3540,-19.8764,-68.9592,17.0,Pampa Del Tamarugal,173.0,Quebrada De Tarapaca
1730002,DGA,dga_web,Rio Tarapaca En Mina San Juan,0,-19.8297,-69.2869,17.0,Pampa Del Tamarugal,173.0,Quebrada De Tarapaca
1730003,DGA,dga_web,Rio Coscaya En Saitoco,0,-19.8642,-68.9297,17.0,Pampa Del Tamarugal,173.0,Quebrada De Tarapaca
1730004,DGA,dga_web,Quebrada Tarapaca En Mulli-Mulli,0,-19.7256,-69.0253,17.0,Pampa Del Tamarugal,173.0,Quebrada De Tarapaca
1730005,DGA,dga_web,Quebrada Tarapaca En Pachica,0,-19.8661,-69.4433,17.0,Pampa Del Tamarugal,173.0,Quebrada De Tarapaca
1730006,DGA,dga_web,Quebrada Tarapaca En Mocha,0,-19.8044,-69.2692,17.0,Pampa Del Tamarugal,173.0,Quebrada De Tarapaca
1730007,DGA,dga_web,Q. Tarapaca En Sibaya,2830,-19.7831,-69.1433,17.0,Pampa Del Tamarugal,173.0,Quebrada De Tarapaca
1730008,DGA,dga_web,Quebrada Tarapaca En Puchurca,0,-19.85,-69.3167,17.0,Pampa Del Tamarugal,173.0,Quebrada De Tarapaca
1730009,DGA,dga_web,Quebrada Aroma En Palca,0,-19.7,-68.9083,17.0,Pampa Del Tamarugal,173.0,Quebrada De Tarapaca
1730012,DGA,dga_web,Q. Tarapaca En Laonsana,1847,-19.8531,-69.3442,17.0,Pampa Del Tamarugal,173.0,Quebrada De Tarapaca
1730015,DGA,dga_web,Pampa Lirima Dcp,5100,-19.7653,-68.8581,17.0,Pampa Del Tamarugal,173.0,Quebrada De Tarapaca
1730016,DGA,dga_web,Pampa Lirima,4076,-19.8472,-68.8544,17.0,Pampa Del Tamarugal,173.0,Quebrada De Tarapaca
1730017,DGA,dga_web,Poroma,2880,-19.8719,-69.1831,17.0,Pampa Del Tamarugal,173.0,Quebrada De Tarapaca
1730018,DGA,dga_web,Lagunillas (Pampa Lirima),4020,-19.9333,-68.8369,17.0,Pampa Del Tamarugal,173.0,Quebrada De Tarapaca
1730019,DGA,dga_web,Mocha,2150,-19.8097,-69.2731,17.0,Pampa Del Tamarugal,173.0,Quebrada De Tarapaca
1730020,DGA,dga_web,Chuzmiza,3400,-19.6831,-69.1833,17.0,Pampa Del Tamarugal,173.0,Quebrada De Tarapaca
1740001,DGA,dga_web,Parca,2650,-20.0122,-69.2033,17.0,Pampa Del Tamarugal,174.0,Quebrada De Quipisca
1740002,DGA,dga_web,Cerro Colorado,2510,-20.065,-69.2703,17.0,Pampa Del Tamarugal,174.0,Quebrada De Quipisca
1750002,DGA,dga_web,Sagasca,1822,-20.2033,-69.3397,17.0,Pampa Del Tamarugal,175.0,Quebradas Juan Morales Sagasca  Y El Tambillo
1750003,DGA,dga_web,Mamia,2730,-20.0756,-69.2147,17.0,Pampa Del Tamarugal,175.0,Quebradas Juan Morales Sagasca  Y El Tambillo
1770001,DGA,dga_web,Copaquire,3540,-20.9303,-68.8922,17.0,Pampa Del Tamarugal,177.0,Quebrada De Chacarilla
180005,DMC,dmc_merge,Chacalluta Arica Ap.,63,-18.3514,-70.3358,10.0,Altiplanicas,100.0,Entre Limite Peru - Bolivia Y Rio Lauca
1820001,DGA,dga_web,Iquique,50,-20.2153,-70.1361,18.0,Costeras Tilviche-Loa,182.0,Pampas El Carmen Y De La Union
2000001,DGA,dga_web,Ollague,3700,-21.2233,-68.2494,20.0,Fronterizas Salar Michincha-R.Loa,200.0,Salar De Ollague
200006,DMC,dmc_merge,Diego Aracena Iquique Ap.,52,-20.5397,-70.1786,10.0,Altiplanicas,104.0,Entre Estero Sencata Y Rio Sacaya
2020001,DGA,dga_web,Cebollar,3730,-21.5311,-68.3386,20.0,Fronterizas Salar Michincha-R.Loa,202.0,Salar De Ascotan
2020002,DGA,dga_web,Ascotan,3970,-21.7253,-68.2756,20.0,Fronterizas Salar Michincha-R.Loa,202.0,Salar De Ascotan
2101001,DGA,dga_web,Rio Loa Antes Represa Lequena,3315,-21.6558,-68.6622,21.0,Rio Loa,210.0,Rio Loa Alto (Bajo Junta Rio Salado)
2101003,DGA,dga_web,Lequena,3320,-21.6553,-68.6611,21.0,Rio Loa,210.0,Rio Loa Alto (Bajo Junta Rio Salado)
2102005,DGA,dga_web,Quinchamale,3080,-21.9053,-68.5964,21.0,Rio Loa,210.0,Rio Loa Alto (Bajo Junta Rio Salado)
2103001,DGA,dga_web,"Rio San Pedro En Parshall N""1",3700,-21.9664,-68.3661,21.0,Rio Loa,210.0,Rio Loa Alto (Bajo Junta Rio Salado)
2103002,DGA,dga_web,"Rio San Pedro En Parshall N""2 (Bt. Chilex)",3318,-21.9425,-68.5122,21.0,Rio Loa,210.0,Rio Loa Alto (Bajo Junta Rio Salado)
2103003,DGA,dga_web,Rio San Pedro En Camino Internacional,3320,-21.9369,-68.5331,21.0,Rio Loa,210.0,Rio Loa Alto (Bajo Junta Rio Salado)
2103004,DGA,dga_web,Rio San Pedro En San Pedro,0,-21.9314,-68.5603,21.0,Rio Loa,210.0,Rio Loa Alto (Bajo Junta Rio Salado)
2103007,DGA,dga_web,San Pedro De Conchi,3217,-21.9333,-68.5364,21.0,Rio Loa,210.0,Rio Loa Alto (Bajo Junta Rio Salado)
2103008,DGA,dga_web,Parshall N 2,3318,-21.9428,-68.5175,21.0,Rio Loa,210.0,Rio Loa Alto (Bajo Junta Rio Salado)
2103009,DGA,dga_web,Ojos San Pedro,3800,-21.9706,-68.3128,21.0,Rio Loa,210.0,Rio Loa Alto (Bajo Junta Rio Salado)
2103010,DGA,dga_web,Inacaliri,4040,-22.0278,-68.0661,21.0,Rio Loa,210.0,Rio Loa Alto (Bajo Junta Rio Salado)
2103012,DGA,dga_web,Silala,4305,-22.0139,-68.0289,21.0,Rio Loa,210.0,Rio Loa Alto (Bajo Junta Rio Salado)
2103014,DGA,dga_web,Rio Siloli Antes B.T. Fcab,4000,-22.0103,-68.0269,21.0,Rio Loa,210.0,Rio Loa Alto (Bajo Junta Rio Salado)
2104001,DGA,dga_web,Rio Loa En Conchi,3010,-21.9881,-68.6067,21.0,Rio Loa,210.0,Rio Loa Alto (Bajo Junta Rio Salado)
2104002,DGA,dga_web,Rio Loa En Salida Embalse Conchi,2950,-22.0278,-68.6208,21.0,Rio Loa,210.0,Rio Loa Alto (Bajo Junta Rio Salado)
2104003,DGA,dga_web,"Rio Loa En Alcantarilla Conchi N""2",2932,-21.9756,-68.6075,21.0,Rio Loa,210.0,Rio Loa Alto (Bajo Junta Rio Salado)
2104004,DGA,dga_web,"Rio Loa En Alcantarilla Conchi N""1",2975,-21.9739,-68.6067,21.0,Rio Loa,210.0,Rio Loa Alto (Bajo Junta Rio Salado)
2104005,DGA,dga_web,Rio Loa Antes Junta Rio Salado,2505,-22.3606,-68.65,21.0,Rio Loa,210.0,Rio Loa Alto (Bajo Junta Rio Salado)
2104007,DGA,dga_web,Conchi Viejo,3491,-21.95,-68.7239,21.0,Rio Loa,210.0,Rio Loa Alto (Bajo Junta Rio Salado)
2104008,DGA,dga_web,Conchi Embalse,3010,-22.025,-68.6242,21.0,Rio Loa,210.0,Rio Loa Alto (Bajo Junta Rio Salado)
2104009,DGA,dga_web,Conchi Muro Embalse,3000,-22.0267,-68.6208,21.0,Rio Loa,210.0,Rio Loa Alto (Bajo Junta Rio Salado)
2104010,DGA,dga_web,Chiu-Chiu,2524,-22.3378,-68.6367,21.0,Rio Loa,210.0,Rio Loa Alto (Bajo Junta Rio Salado)
2104013,DGA,dga_web,Rio Loa En Vado Santa Barbara (Doh),2950,-21.9719,-68.6083,21.0,Rio Loa,210.0,Rio Loa Alto (Bajo Junta Rio Salado)
2105001,DGA,dga_web,Rio Salado A. J. Curti,3080,-22.2792,-68.2428,21.0,Rio Loa,210.0,Rio Loa Alto (Bajo Junta Rio Salado)
2105002,DGA,dga_web,Rio Salado En Sifon Ayquina,2980,-22.2894,-68.3447,21.0,Rio Loa,210.0,Rio Loa Alto (Bajo Junta Rio Salado)
2105005,DGA,dga_web,Rio Salado A. J. Loa,2500,-22.3653,-68.6419,21.0,Rio Loa,210.0,Rio Loa Alto (Bajo Junta Rio Salado)
2105007,DGA,dga_web,Rio Toconce Antes Represa Sendos,0,-22.2731,-68.1439,21.0,Rio Loa,210.0,Rio Loa Alto (Bajo Junta Rio Salado)
2105008,DGA,dga_web,Vertiente Turi Turi,0,-22.2289,-68.2808,21.0,Rio Loa,210.0,Rio Loa Alto (Bajo Junta Rio Salado)
2105014,DGA,dga_web,Cupo,3370,-22.1147,-68.3167,21.0,Rio Loa,210.0,Rio Loa Alto (Bajo Junta Rio Salado)
2105015,DGA,dga_web,Turi,3070,-22.2408,-68.2881,21.0,Rio Loa,210.0,Rio Loa Alto (Bajo Junta Rio Salado)
2105016,DGA,dga_web,Linzor,4100,-22.2297,-68.0228,21.0,Rio Loa,210.0,Rio Loa Alto (Bajo Junta Rio Salado)
2105017,DGA,dga_web,Toconce,3310,-22.2592,-68.1733,21.0,Rio Loa,210.0,Rio Loa Alto (Bajo Junta Rio Salado)
2105018,DGA,dga_web,Ayquina,3031,-22.2753,-68.3183,21.0,Rio Loa,210.0,Rio Loa Alto (Bajo Junta Rio Salado)
2105019,DGA,dga_web,Sifon Ayquina,3000,-22.2833,-68.3497,21.0,Rio Loa,210.0,Rio Loa Alto (Bajo Junta Rio Salado)
2105020,DGA,dga_web,Salado Embalse,3200,-22.2856,-68.2028,21.0,Rio Loa,210.0,Rio Loa Alto (Bajo Junta Rio Salado)
2105021,DGA,dga_web,Caspana,3260,-22.3367,-68.2122,21.0,Rio Loa,210.0,Rio Loa Alto (Bajo Junta Rio Salado)
2105022,DGA,dga_web,El Tatio,4370,-22.3711,-68.0133,21.0,Rio Loa,210.0,Rio Loa Alto (Bajo Junta Rio Salado)
2105031,DGA,dga_web,Amincha,3860,-21.2006,-68.3394,21.0,Rio Loa,210.0,Rio Loa Alto (Bajo Junta Rio Salado)
2110001,DGA,dga_web,Rio Loa En Escorial,2450,-22.4419,-68.8886,32.0,Rio Loa,322.0,Rio Loa Medio (Entre Rio Salado Y Quebrada Amarga)
2110002,DGA,dga_web,Rio Loa En Yalquincha,2300,-22.4469,-68.8775,32.0,Rio Loa,322.0,Rio Loa Medio (Entre Rio Salado Y Quebrada Amarga)
2110003,DGA,dga_web,Rio Loa En Chintoraste,2200,-22.5028,-68.9772,32.0,Rio Loa,322.0,Rio Loa Medio (Entre Rio Salado Y Quebrada Amarga)
2110004,DGA,dga_web,Rio Loa En Finca,2100,-22.5061,-68.9889,32.0,Rio Loa,322.0,Rio Loa Medio (Entre Rio Salado Y Quebrada Amarga)
2110007,DGA,dga_web,Rio Loa Antes Junta San Salvador,1238,-22.3961,-69.5278,32.0,Rio Loa,322.0,Rio Loa Medio (Entre Rio Salado Y Quebrada Amarga)
2110008,DGA,dga_web,Rio Loa Despues Junta Rio Salado (Ca),2500,-22.3733,-68.6572,32.0,Rio Loa,322.0,Rio Loa Medio (Entre Rio Salado Y Quebrada Amarga)
2110013,DGA,dga_web,Calama,2300,-22.4494,-68.9044,21.0,Rio Loa,211.0,Loa Medio (Entre R.  Salado Y Q. De Barrera)
2110031,DGA,dga_web,Rio Loa En Angostura,2470,-22.4583,-68.7364,32.0,Rio Loa,322.0,Rio Loa Medio (Entre Rio Salado Y Quebrada Amarga)
2111002,DGA,dga_web,Rio San Salvador Antes Junta Rio Loa,1238,-22.3947,-69.5261,32.0,Rio Loa,322.0,Rio Loa Medio (Entre Rio Salado Y Quebrada Amarga)
2111004,DGA,dga_web,Tranque Sloman,985,-21.8506,-69.5139,21.0,Rio Loa,211.0,Loa Medio (Entre R.  Salado Y Q. De Barrera)
2112001,DGA,dga_web,Rio Loa En Quillagua,802,-21.65,-69.5333,32.0,Rio Loa,322.0,Rio Loa Medio (Entre Rio Salado Y Quebrada Amarga)
2112002,DGA,dga_web,Canal Quillagua En Quillagua,910,-21.6433,-69.5386,32.0,Rio Loa,322.0,Rio Loa Medio (Entre Rio Salado Y Quebrada Amarga)
2112005,DGA,dga_web,Rio Loa Antes Zona Agricola Quillagua,950,-21.7125,-69.5167,32.0,Rio Loa,322.0,Rio Loa Medio (Entre Rio Salado Y Quebrada Amarga)
2112006,DGA,dga_web,Rio Loa D. J. San Salvador (Chacance),1238,-22.3922,-69.53,32.0,Rio Loa,322.0,Rio Loa Medio (Entre Rio Salado Y Quebrada Amarga)
2112007,DGA,dga_web,Rio Loa D. J. San Salvador-(M. Elena),1240,-22.3431,-69.565,32.0,Rio Loa,322.0,Rio Loa Medio (Entre Rio Salado Y Quebrada Amarga)
2112008,DGA,dga_web,Quillagua,802,-21.6603,-69.5358,21.0,Rio Loa,211.0,Loa Medio (Entre R.  Salado Y Q. De Barrera)
2112009,DGA,dga_web,Coya Sur,1250,-22.3939,-69.6225,21.0,Rio Loa,211.0,Loa Medio (Entre R.  Salado Y Q. De Barrera)
2113001,DGA,dga_web,Rio Huatacondo En Copaquire,3540,-20.9333,-68.8833,21.0,Rio Loa,211.0,Loa Medio (Entre R.  Salado Y Q. De Barrera)
2113005,DGA,dga_web,Guatacondo Dga,2460,-20.9272,-69.0456,21.0,Rio Loa,211.0,Loa Medio (Entre R.  Salado Y Q. De Barrera)
2120001,DGA,dga_web,Rio Loa En Desembocadura,0,-21.4247,-70.0536,21.0,Rio Loa,212.0,Rio Loa Bajo (Entre Quebrada Amarga Y Desemb.)
220002,DMC,dmc_web,El Loa Calama Ad.,2293,-22.4989,-68.9072,20.0,Fronterizas Salar Michincha-R.Loa,200.0,Salar De Ollague
2210002,DGA,dga_web,Tocopilla,150,-22.0797,-70.1897,22.0,Costeras R.Loa-Q.Caracoles,221.0,Costeras Entre Q. Iquine Y Q.Tocopilla (Inclusive)
2240000,DGA,dga_web,Liceo CientÍFico Humanista La Chimba,0,-23.5544,-70.3933,22.0,Costeras R.Loa-Q.Caracoles,224.0,Costeras Entre Qs. Chacaya Y Caracoles (Incl.)
2240001,DGA,dga_web,Escuela FundaciÓN Minera Escondida,0,-23.6144,-70.3703,22.0,Costeras R.Loa-Q.Caracoles,224.0,Costeras Entre Qs. Chacaya Y Caracoles (Incl.)
230001,DMC,dmc_merge,Cerro Moreno Antofagasta Ap.,113,-23.4503,-70.4411,20.0,Fronterizas Salar Michincha-R.Loa,200.0,Salar De Ollague
2500001,DGA,dga_web,Rio Vilama En Vilama,2550,-22.8667,-68.1833,25.0,Salar De Atacama,250.0,Salar De Atacama
2500002,DGA,dga_web,Canal Aguas Blancas,2415,-23.2725,-68.0133,25.0,Salar De Atacama,250.0,Salar De Atacama
2500003,DGA,dga_web,Canal Tulan En Tilomonte,2450,-23.7897,-68.1081,25.0,Salar De Atacama,250.0,Salar De Atacama
2500004,DGA,dga_web,Canal Vilama En Vilama,2550,-22.8697,-68.1792,25.0,Salar De Atacama,250.0,Salar De Atacama
2500005,DGA,dga_web,Canal Cuno En Socaire,3600,-23.6119,-67.8469,25.0,Salar De Atacama,250.0,Salar De Atacama
2500006,DGA,dga_web,Canal Tilomonte Antes Represa,4000,-23.7967,-68.0953,25.0,Salar De Atacama,250.0,Salar De Atacama
2500015,DGA,dga_web,Toconao Reten,2460,-23.1936,-68.0094,25.0,Salar De Atacama,250.0,Salar De Atacama
2500016,DGA,dga_web,Toconao Experimental,2500,-23.1889,-67.9978,25.0,Salar De Atacama,250.0,Salar De Atacama
2500017,DGA,dga_web,Camar,2700,-23.4069,-67.9631,25.0,Salar De Atacama,250.0,Salar De Atacama
2500019,DGA,dga_web,Socaire,3251,-23.5869,-67.8925,25.0,Salar De Atacama,250.0,Salar De Atacama
2500020,DGA,dga_web,Peine,2460,-23.6842,-68.0581,25.0,Salar De Atacama,250.0,Salar De Atacama
2500021,DGA,dga_web,Talabre,3300,-23.3125,-67.8878,25.0,Salar De Atacama,250.0,Salar De Atacama
2510001,DGA,dga_web,Rio San Pedro En Cuchabrachi,2585,-22.8225,-68.1983,25.0,Salar De Atacama,251.0,Rio San Pedro
2510006,DGA,dga_web,San Pedro De Atacama,2450,-22.9053,-68.2003,25.0,Salar De Atacama,251.0,Rio San Pedro
2510007,DGA,dga_web,Rio Grande,3250,-22.6522,-68.1658,25.0,Salar De Atacama,251.0,Rio San Pedro
2640001,DGA,dga_web,Imilac,3000,-24.1631,-68.7828,26.0,Endorreicas Salar Atacama-Vertiente Pacifico,264.0,Pampa Colorado
2660001,DGA,dga_web,Monturaqui,3430,-24.3414,-68.4353,26.0,Endorreicas Salar Atacama-Vertiente Pacifico,266.0,Pampa De Socompa
2700001,DGA,dga_web,Sierra Gorda,1616,-22.8892,-69.3219,27.0,Quebrada Caracoles,270.0,Quebrada Caracoles Bajo Junta Quebrada El Buitre
270001,DMC,dmc_web,Mataveri Isla De Pascua Ap.,48,-27.1606,-109.427,50.0,Costeras Quilimari-Petorca,500.0,Costeras Quilimari - Petorca
270008,DMC,dmc_merge,Desierto De Atacama Caldera Ap.,204,-27.2639,-70.7742,30.0,Endorreicas Entre Frontera Y Vertiente Del Pacifico,304.0,Salar De Maricunga
2710002,DGA,dga_web,Baquedano,1032,-23.3336,-69.8397,27.0,Quebrada Caracoles,271.0,Q. Caracoles Entre Quebrada El Buitre Y  Salar Del Carmen
2710003,DGA,dga_web,Antofagasta,50,-23.5975,-70.3867,27.0,Quebrada Caracoles,271.0,Q. Caracoles Entre Quebrada El Buitre Y  Salar Del Carmen
2810001,DGA,dga_web,Cachinal De La Sierra,2640,-24.9611,-69.52,28.0,Quebrada La Negra,281.0,Quebrada Grande
2900000,DGA,dga_web,Universidad De Antofagasta,0,-23.7017,-70.4208,29.0,Qs.Entre Q. La Negra Y Q. Pan De Azucar,290.0,Quebradas Entre Quebrada La Negra Y Q. De Remedios
290004,DMC,dmc_merge,La Florida La Serena Ad.,142,-29.9175,-71.2011,41.0,Rio Los Choros,412.0,Q. Los Choros Entre Q. Del Pelicano Y Desembocadura
2941001,DGA,dga_web,Vaquillas,3250,-25.3958,-69.2986,29.0,Costeras Entre Q. La Negra Y Q. Pan De Azucar,294.0,Quebrada De Taltal
2942001,DGA,dga_web,Aguas Verdes,1560,-25.4,-69.9633,29.0,Costeras Entre Q. La Negra Y Q. Pan De Azucar,294.0,Quebrada De Taltal
2943001,DGA,dga_web,Tal-Tal,9,-25.4047,-70.4819,29.0,Costeras Entre Q. La Negra Y Q. Pan De Azucar,294.0,Quebrada De Taltal
2943002,DGA,dga_web,Tal-Tal (Dcp),0,-25.4033,-70.4797,29.0,Qs.Entre Q. La Negra Y Q. Pan De Azucar,294.0,Quebrada De Taltal
2960001,DGA,dga_web,Sierra Overa,1900,-25.78,-69.8881,29.0,Costeras Entre Q. La Negra Y Q. Pan De Azucar,296.0,Quebrada De La Cachina
3022001,DGA,dga_web,Rio La Ola En Vertedero,0,-26.4808,-69.06,30.0,Endorreicas Entre Frontera Y Vertiente,302.0,Salar De Pedernales
3041001,DGA,dga_web,Rio Barros Negros Antes Junta Valle Ancho,3965,-27.2642,-68.9975,30.0,Endorreicas Entre Frontera Y Vertiente,304.0,Salar De Maricunga
3041002,DGA,dga_web,Rio Villalobos En Vertedero,3850,-27.2025,-69.025,30.0,Endorreicas Entre Frontera Y Vertiente,304.0,Salar De Maricunga
3041003,DGA,dga_web,Rio Valle Ancho Antes  Junta Barros Negros,3950,-27.2622,-69.0028,30.0,Endorreicas Entre Frontera Y Vertiente,304.0,Salar De Maricunga
3041004,DGA,dga_web,Rio Valle Ancho En La Barrera,3800,-27.1333,-69.0003,30.0,Endorreicas Entre Frontera Y Vertiente,304.0,Salar De Maricunga
3041005,DGA,dga_web,Rio Lamas En El Salto,4130,-27.08,-68.9306,30.0,Endorreicas Entre Frontera Y Vertiente,304.0,Salar De Maricunga
3050001,DGA,dga_web,Rio Astaburuaga En Cono,4130,-27.4597,-69.0453,30.0,Endorreicas Entre Frontera Y Vertiente,305.0,Laguna Del Negro Francisco
3210001,DGA,dga_web,Las Vegas,2250,-26.6781,-69.6656,32.0,Rio Salado,321.0,Quebrada Del Chanaral
330007,DMC,dmc_merge,Rodelillo Ad.,330,-33.0367,-71.5342,50.0,Costeras Quilimari-Petorca,500.0,Costeras Quilimari - Petorca
330019,DMC,dmc_web,Eulogio Sanchez Tobalaba Ad.,650,-33.4544,-70.5478,57.0,Rio Maipo,573.0,Mapocho Bajo
330020,DMC,dmc_merge,Quinta Normal Santiago,527,-33.445,-70.6828,57.0,Rio Maipo,573.0,Mapocho Bajo
330021,DMC,dmc_web,Pudahuel Santiago,482,-33.3919,-70.7944,57.0,Rio Maipo,573.0,Mapocho Bajo
330030,DMC,dmc_web,Santo Domingo Ad.,75,-33.655,-71.6142,50.0,Costeras Quilimari-Petorca,500.0,Costeras Quilimari - Petorca
330031,DMC,dmc_web,Juan Fernandez Estacion Meteorologica,35,-33.6367,-78.835,50.0,Costeras Quilimari-Petorca,500.0,Costeras Quilimari - Petorca
3340001,DGA,dga_web,Caldera,15,-27.0692,-70.8156,33.0,Costeras E Islas R.Salado-R.Copiapo,334.0,Costeras Entre Quebrada Del Morado Y Rio Copiapo
340031,DMC,dmc_merge,General Freire Curico Ad.,225,-34.9664,-71.2167,61.0,Costeras Rapel-E.Nilahue,613.0,Estero Nilahue
3404001,DGA,dga_web,Rio Jorquera En Vertedero,1250,-28.0431,-69.9567,34.0,Rio Copiapo,340.0,Rio Jorquera
3404002,DGA,dga_web,Jorquera En La Guardia,2000,-27.8364,-69.755,34.0,Rio Copiapo,340.0,Rio Jorquera
3412001,DGA,dga_web,Torin En El Potro,2800,-28.2767,-69.7481,34.0,Rio Copiapo,341.0,Rio Pulido
3414001,DGA,dga_web,Rio Pulido En Vertedero,1310,-28.0858,-69.9408,34.0,Rio Copiapo,341.0,Rio Pulido
3414002,DGA,dga_web,Iglesia Colorada,1550,-28.1572,-69.8808,34.0,Rio Copiapo,341.0,Rio Pulido
3421001,DGA,dga_web,Rio Manflas En Vertedero,1550,-28.1478,-69.9939,34.0,Rio Copiapo,342.0,Rio Manflas
3421002,DGA,dga_web,Rio Manflas Ante Junta Con Rio Copiapo,0,-28.1333,-70.0,34.0,Rio Copiapo,342.0,Rio Manflas
3421004,DGA,dga_web,Manflas,1410,-28.1336,-69.975,34.0,Rio Copiapo,342.0,Rio Manflas
3430001,DGA,dga_web,Rio Copiapo En Lautaro,1200,-27.9747,-69.9978,34.0,Rio Copiapo,343.0,Rio Copiapo Medio (Entre R. Jorquera Q. Paipote)
3430002,DGA,dga_web,Rio Copiapo En San Antonio,850,-27.8667,-70.0667,34.0,Rio Copiapo,343.0,Rio Copiapo Medio (Entre R. Jorquera Q. Paipote)
3430003,DGA,dga_web,Rio Copiapo En Pastillo,1300,-28.0003,-69.9747,34.0,Rio Copiapo,343.0,R.  Copiapo Medio
3430006,DGA,dga_web,Lautaro Embalse,1110,-27.9783,-70.0033,34.0,Rio Copiapo,343.0,R.  Copiapo Medio
3430007,DGA,dga_web,Los Loros,940,-27.8317,-70.1119,34.0,Rio Copiapo,343.0,R.  Copiapo Medio
3431001,DGA,dga_web,Rio Copiapo En La Puerta,915,-27.8044,-70.1269,34.0,Rio Copiapo,343.0,R.  Copiapo Medio
3431002,DGA,dga_web,Rio Copiapo En El Bosque,0,-27.7256,-69.6586,34.0,Rio Copiapo,343.0,Rio Copiapo Medio (Entre R. Jorquera Q. Paipote)
3431003,DGA,dga_web,Rio Copiapo En Pabellon,0,-27.6528,-70.2331,34.0,Rio Copiapo,343.0,Rio Copiapo Medio (Entre R. Jorquera Q. Paipote)
3431004,DGA,dga_web,Elibor Campamento,750,-27.7167,-70.1953,34.0,Rio Copiapo,343.0,R.  Copiapo Medio
3434001,DGA,dga_web,Rio Copiapo En Mal Paso Aguas Arriba Canal,431,-27.5244,-70.2689,34.0,Rio Copiapo,343.0,Rio Copiapo Medio (Entre R. Jorquera Q. Paipote)
3434002,DGA,dga_web,Canal Mal Paso Despues De Bocatoma,431,-27.5147,-70.2644,34.0,Rio Copiapo,343.0,Rio Copiapo Medio (Entre R. Jorquera Q. Paipote)
3434003,DGA,dga_web,Rio Copiapo En Mal Paso Aguas Abajo Canal,431,-27.5161,-70.2647,34.0,Rio Copiapo,343.0,Rio Copiapo Medio (Entre R. Jorquera Q. Paipote)
3441001,DGA,dga_web,Pastos Grandes,2260,-27.1142,-69.5642,34.0,Rio Copiapo,344.0,Quebrada Paipote
3450001,DGA,dga_web,Rio Copiapo En Ciudad De Copiapo,0,-27.3636,-70.3392,34.0,Rio Copiapo,345.0,Rio Copiapo Bajo (Entre Q. Paipote Y Desemb.)
3450004,DGA,dga_web,Copiapo,385,-27.3772,-70.3308,34.0,Rio Copiapo,345.0,R.  Copiapo Bajo
3453001,DGA,dga_web,Rio Copiapo En Angostura,48,-27.3194,-70.8381,34.0,Rio Copiapo,345.0,Rio Copiapo Bajo (Entre Q. Paipote Y Desemb.)
360011,DMC,dmc_merge,Bernardo O'Higgins Chillan Ad.,151,-36.5872,-72.04,81.0,Rio Itata,810.0,Nuble Alto
360019,DMC,dmc_merge,Carriel Sur Concepcion.,12,-36.7792,-73.0622,81.0,Rio Itata,810.0,Nuble Alto
3604001,DGA,dga_web,El Totoral,150,-27.9022,-70.9575,36.0,Q.Totoral Y Costeras Hasta Q.Carrizal,360.0,Quebrada Totoral
370033,DMC,dmc_web,Maria Dolores Los Angeles Ad.,120,-37.4028,-72.4225,81.0,Rio Itata,810.0,Nuble Alto
3701001,DGA,dga_web,Canto De Agua,330,-28.0992,-70.7811,37.0,Quebrada Carrizal Y Costeras Hasta R. Huasco,370.0,Quebradas Carrizal Y Carrizalillo
3800000,DGA,dga_web,Portezuelo El Gaucho,4000,-28.6231,-70.045,38.0,Rio Huasco,380.0,Rio Transito
380013,DMC,dmc_merge,Maquehue Temuco Ad.,92,-38.77,-72.6369,83.0,Rio Bio Bio,830.0,Rio Bio-Bio Alto (Hasta Despues Junta Rio Lamin)
3801002,DGA,dga_web,Junta Valerianos,1800,-28.9019,-70.0603,38.0,Rio Huasco,380.0,Rio Transito
3802001,DGA,dga_web,Rio Conay En Las Lozas,0,-28.9456,-70.1011,38.0,Rio Huasco,380.0,Rio Transito
3802002,DGA,dga_web,Rio Conay En Junta Laguna Grande,0,-28.8833,-70.0667,38.0,Rio Huasco,380.0,Rio Transito
3802003,DGA,dga_web,Rio Huasco Antes Junta Rio Cholai-Conay,0,-28.975,-71.175,38.0,Rio Huasco,380.0,Rio Transito
3802004,DGA,dga_web,Los Tambos,1400,-28.9817,-70.1881,38.0,Rio Huasco,380.0,Rio Transito
3802005,DGA,dga_web,Conay,1450,-28.975,-70.1533,38.0,Rio Huasco,380.0,Rio Transito
3802006,DGA,dga_web,Conay En Albaricoque,1600,-28.9519,-70.1106,38.0,Rio Huasco,380.0,Rio Transito
3804001,DGA,dga_web,Rio Transito En Los Tambos,1400,-28.95,-70.2167,38.0,Rio Huasco,380.0,Rio Transito
3804002,DGA,dga_web,Rio Transito En Angostura Pinte,1000,-28.9414,-70.2481,38.0,Rio Huasco,380.0,Rio Transito
3804003,DGA,dga_web,Rio Huasco En Chanchoquin,0,-28.9,-70.2833,38.0,Rio Huasco,380.0,Rio Transito
3804004,DGA,dga_web,Rio Transito En El Transito,0,-28.8667,-70.2833,38.0,Rio Huasco,380.0,Rio Transito
3804005,DGA,dga_web,El Parral,1400,-28.9797,-70.1986,38.0,Rio Huasco,380.0,Rio Transito
3804006,DGA,dga_web,El Corral,1820,-29.1383,-70.3778,38.0,Rio Huasco,380.0,Rio Transito
3804007,DGA,dga_web,Junta Del Carmen,770,-28.7539,-70.4817,38.0,Rio Huasco,380.0,Rio Transito
3806001,DGA,dga_web,Rio Transito Antes Junta Rio Carmen,812,-28.7503,-70.4828,38.0,Rio Huasco,380.0,Rio Transito
3806002,DGA,dga_web,El Transito,1100,-28.8731,-70.2822,38.0,Rio Huasco,380.0,Rio Transito
3814001,DGA,dga_web,Rio Carmen En San Felix,812,-28.94,-70.4569,38.0,Rio Huasco,381.0,Rio Del Carmen
3814002,DGA,dga_web,Rio Carmen En El Colorado,0,-28.9833,-70.5167,38.0,Rio Huasco,381.0,Rio Del Carmen
3814003,DGA,dga_web,Rio Carmen En El Corral,2000,-29.1094,-70.4139,38.0,Rio Huasco,381.0,Rio Del Carmen
3815001,DGA,dga_web,Rio Carmen En Ramadillas,825,-28.75,-70.4867,38.0,Rio Huasco,381.0,Rio Del Carmen
3815002,DGA,dga_web,Rio Carmen En Pte. La Majada,1075,-28.9319,-70.4581,38.0,Rio Huasco,381.0,Rio Del Carmen
3815004,DGA,dga_web,San Felix,1150,-28.9311,-70.4614,38.0,Rio Huasco,381.0,Rio Del Carmen
3820001,DGA,dga_web,Rio Huasco En Algodones,750,-28.7306,-70.5067,38.0,Rio Huasco,382.0,Rio Huasco
3820002,DGA,dga_web,Rio Huasco En Chepica,600,-28.6997,-70.55,38.0,Rio Huasco,382.0,Rio Huasco
3820003,DGA,dga_web,Rio Huasco En Santa Juana,575,-28.6719,-70.6464,38.0,Rio Huasco,382.0,Rio Huasco
3820004,DGA,dga_web,Santa Juana,560,-28.6672,-70.6625,38.0,Rio Huasco,382.0,Rio Huasco
3823002,DGA,dga_web,Vallenar Dmc,535,-28.5936,-70.7572,38.0,Rio Huasco,382.0,Rio Huasco
3823003,DGA,dga_web,Vallenar Dga,420,-28.5861,-70.7397,38.0,Rio Huasco,382.0,Rio Huasco
3823004,DGA,dga_web,La Compaia (Vallenar),430,-28.5761,-70.8081,38.0,Rio Huasco,382.0,Rio Huasco
3825001,DGA,dga_web,Rio Huasco En Puente Nicolasa,167,-28.5119,-71.0064,38.0,Rio Huasco,382.0,Rio Huasco
3825004,DGA,dga_web,Freirina,100,-28.5072,-71.0806,38.0,Rio Huasco,382.0,Rio Huasco
3826001,DGA,dga_web,Rio Huasco En Huasco Bajo,0,-28.4647,-71.1783,38.0,Rio Huasco,382.0,Rio Huasco
3826002,DGA,dga_web,Huasco,15,-28.4669,-71.2214,38.0,Rio Huasco,382.0,Rio Huasco
3826003,DGA,dga_web,Huasco Bajo,50,-28.4725,-71.1931,38.0,Rio Huasco,382.0,Rio Huasco
390006,DMC,dmc_merge,Pichoy Valdivia Ad.,21,-39.6506,-73.0808,101.0,Rio Valdivia,1010.0,Rio Valdivia Alto (Hasta Desague Lago Panguipulli)
3940001,DGA,dga_web,Domeiko,780,-28.9544,-70.8936,39.0,Costeras E Islas Entre R.Huasco Y Cuarta Region,394.0,Q. Chanaral
400009,DMC,dmc_merge,Canal Bajo Osorno Ad.,61,-40.605,-73.0608,104.0,Cuencas E Islas Entre R.Bueno Y R. Puelo,1040.0,Costeras Entre Rio Bueno Y Rio Maullin
410005,DMC,dmc_merge,El Tepual Puerto Montt Ap.,85,-41.435,-73.0978,104.0,Cuencas E Islas Entre R.Bueno Y R. Puelo,1040.0,Costeras Entre Rio Bueno Y Rio Maullin
4110001,DGA,dga_web,Rio Elqui En Molle,0,-29.4833,-70.9833,41.0,Rio Los Choros,411.0,Quebrada Del Pelicano
4120001,DGA,dga_web,El Trapiche,300,-29.3731,-71.1181,41.0,Rio Los Choros,412.0,Q. Los Choros Entre Q. Del Pelicano Y Desembocadura
420004,DMC,dmc_web,Chaiten Ad.,10,-42.9303,-72.7008,104.0,Cuencas E Islas Entre R.Bueno Y R. Puelo,1040.0,Costeras Entre Rio Bueno Y Rio Maullin
430002,DMC,dmc_web,Futaleufu Ad.,347,-43.1889,-71.8525,104.0,Cuencas E Islas Entre R.Bueno Y R. Puelo,1040.0,Costeras Entre Rio Bueno Y Rio Maullin
430004,DMC,dmc_web,Alto Palenaad.,281,-43.6117,-71.8053,104.0,Cuencas E Islas Entre R.Bueno Y R. Puelo,1040.0,Costeras Entre Rio Bueno Y Rio Maullin
4301002,DGA,dga_web,Rio La Laguna En Salida Embalse La Laguna,3130,-30.2028,-70.0361,43.0,Rio Elqui,430.0,Rio Turbio
4301003,DGA,dga_web,Rio La Laguna En Nueva Elqui,3100,-30.2,-70.0667,43.0,Rio Elqui,430.0,Rio Turbio
4301005,DGA,dga_web,La Laguna Embalse,3160,-30.2033,-70.0422,43.0,Rio Elqui,430.0,Rio Turbio
4302001,DGA,dga_web,Rio Toro Antes Junta Rio La Laguna,2165,-29.9711,-70.0928,43.0,Rio Elqui,430.0,Rio Turbio
4302003,DGA,dga_web,Dren G Tranque El Indio (2-D Drenes),0,-29.8192,-70.0144,43.0,Rio Elqui,430.0,Rio Turbio
4302014,DGA,dga_web,Juntas,2150,-29.9769,-70.0944,43.0,Rio Elqui,430.0,Rio Turbio
4304001,DGA,dga_web,Rio Ingaguas En Las Terneras,0,-29.9833,-70.25,43.0,Rio Elqui,430.0,Rio Turbio
4305001,DGA,dga_web,Rio Turbio En Las Terneras,0,-29.95,-70.3833,43.0,Rio Elqui,430.0,Rio Turbio
4306001,DGA,dga_web,Rio Turbio En Huanta,1195,-29.8431,-70.3861,43.0,Rio Elqui,430.0,Rio Turbio
4306002,DGA,dga_web,Huanta,1240,-29.8478,-70.3847,43.0,Rio Elqui,430.0,Rio Turbio
4308001,DGA,dga_web,Rio Turbio En Varillar,890,-29.9458,-70.5328,43.0,Rio Elqui,430.0,Rio Turbio
4308003,DGA,dga_web,Rivadavia,820,-29.9772,-70.5617,43.0,Rio Elqui,430.0,Rio Turbio
4311001,DGA,dga_web,Estero Derecho En Alcohuaz,1645,-30.2206,-70.4928,43.0,Rio Elqui,431.0,Rio Claro
4311003,DGA,dga_web,Pisco Elqui Dmc,1250,-30.1217,-70.4933,43.0,Rio Elqui,431.0,Rio Claro
4311004,DGA,dga_web,Los Nichos,1330,-30.1472,-70.4983,43.0,Rio Elqui,431.0,Rio Claro
4311005,DGA,dga_web,La Ortiga,1560,-30.1939,-70.4819,43.0,Rio Elqui,431.0,Rio Claro
4313001,DGA,dga_web,Rio Cochiguaz En El PeÑOn,1360,-30.1222,-70.4344,43.0,Rio Elqui,431.0,Rio Claro
4313003,DGA,dga_web,Cochiguaz,1560,-30.1414,-70.4047,43.0,Rio Elqui,431.0,Rio Claro
4314001,DGA,dga_web,Rio Claro En Montegrande,1120,-30.0897,-70.4928,43.0,Rio Elqui,431.0,Rio Claro
4314002,DGA,dga_web,Rio Claro En Rivadavia,820,-29.9781,-70.5525,43.0,Rio Elqui,431.0,Rio Claro
4314003,DGA,dga_web,Monte Grande,1120,-30.0894,-70.4939,43.0,Rio Elqui,431.0,Rio Claro
4320001,DGA,dga_web,Rio Elqui En Algarrobal,760,-29.9953,-70.5867,43.0,Rio Elqui,432.0,R. Elqui Medio
4320003,DGA,dga_web,Vicua (Inia),730,-30.0567,-70.7167,43.0,Rio Elqui,432.0,R. Elqui Medio
4321001,DGA,dga_web,Puclaro Embalse,460,-29.9964,-70.8556,43.0,Rio Elqui,432.0,R. Elqui Medio
4323001,DGA,dga_web,Rio Elqui En Almendral,395,-29.9811,-70.8981,43.0,Rio Elqui,432.0,"Rio Elqui Medio (Jta Turbio, Claro Y Q El Arrayan)"
4323002,DGA,dga_web,Rio Elqui En Puclaro,445,-30.0,-70.85,43.0,Rio Elqui,432.0,"Rio Elqui Medio (Jta Turbio, Claro Y Q El Arrayan)"
4323003,DGA,dga_web,Rio Elqui En Gualliguaica,490,-30.0208,-70.7992,43.0,Rio Elqui,432.0,"Rio Elqui Medio (Jta Turbio, Claro Y Q El Arrayan)"
4323007,DGA,dga_web,Almendral,370,-29.9822,-70.9186,43.0,Rio Elqui,432.0,R. Elqui Medio
4331001,DGA,dga_web,Rio Elqui En Punta De Piedra,160,-29.8667,-71.1,43.0,Rio Elqui,433.0,Rio Elqui Bajo (Entre Q. El Arrayan Y Desemb)
4331004,DGA,dga_web,Molino Yaco,1550,-29.9519,-70.28,43.0,Rio Elqui,433.0,R. Elqui Bajo
4334001,DGA,dga_web,Fundo San Antonio,260,-29.8369,-71.1044,43.0,Rio Elqui,433.0,R. Elqui Bajo
4335001,DGA,dga_web,Rio Elqui En La Serena,20,-29.8931,-71.2514,43.0,Rio Elqui,433.0,Rio Elqui Bajo (Entre Q. El Arrayan Y Desemb)
4335002,DGA,dga_web,La Serena (Escuela Agricola),15,-29.9061,-71.2556,43.0,Rio Elqui,433.0,R. Elqui Bajo
4400001,DGA,dga_web,Estero Culebron En El Sifon,70,-29.9789,-71.2861,44.0,Costeras R.Elqui-R.Limari,440.0,Costeras Entre E. El Culebron Y Q. El Romeral
4400002,DGA,dga_web,Pan De Azucar,100,-30.0022,-71.2592,44.0,Costeras Entre Elqui Y Limari,440.0,E.  El Culebron - Q. El Romeral (Incl.)
4410001,DGA,dga_web,Cerrillos Pobres,150,-30.2964,-71.3881,44.0,Costeras Entre Elqui Y Limari,441.0,Q. Camarones (Incl. - R. Limari
450001,DMC,dmc_merge,Puerto Aysen Ad.,10,-45.3961,-72.6639,113.0,Rio Aisen,1134.0,Rio Aisen Entre Rio Riesco Y Desembocadura
450004,DMC,dmc_merge,Teniente Vidal Coyhaique Ad.,310,-45.5939,-72.1086,113.0,Rio Aisen,1131.0,Rio Simpson
450005,DMC,dmc_merge,Balmaceda Ad.,517,-45.9128,-71.6942,113.0,Rio Aisen,1131.0,Rio Simpson
4501001,DGA,dga_web,Rio Hurtado En San Agustin,2035,-30.4622,-70.5361,45.0,Rio Limari,450.0,Rio Hurtado
4501002,DGA,dga_web,Rio Hurtado En Las Breas,1645,-30.3833,-70.6,45.0,Rio Limari,450.0,Rio Hurtado
4501003,DGA,dga_web,Pabellon,1920,-30.4111,-70.5544,45.0,Rio Limari,450.0,Rio Hurtado
4501004,DGA,dga_web,Las Breas,1600,-30.3694,-70.6131,45.0,Rio Limari,450.0,Rio Hurtado
4502001,DGA,dga_web,Rio Hurtado En La Cortadera,900,-30.3333,-70.7667,45.0,Rio Limari,450.0,Rio Hurtado
4502002,DGA,dga_web,Rio Hurtado En Hurtado,0,-30.2833,-70.7,45.0,Rio Limari,450.0,Rio Hurtado
4502003,DGA,dga_web,Estancia Chacay,1380,-30.4453,-70.7114,45.0,Rio Limari,450.0,Rio Hurtado
4502004,DGA,dga_web,La Cortadera,920,-30.3503,-70.77,45.0,Rio Limari,450.0,Rio Hurtado
4502005,DGA,dga_web,Hurtado,1100,-30.2867,-70.6961,45.0,Rio Limari,450.0,Rio Hurtado
4503001,DGA,dga_web,Rio Hurtado En Angostura De Pangue,485,-30.4386,-71.0022,45.0,Rio Limari,450.0,Rio Hurtado
4503002,DGA,dga_web,Samo Alto,600,-30.4094,-70.9386,45.0,Rio Limari,450.0,Rio Hurtado
4503003,DGA,dga_web,Pichasca,725,-30.3922,-70.8678,45.0,Rio Limari,450.0,Rio Hurtado
4506002,DGA,dga_web,Rio Hurtado En Entrada Embalse Recoleta,410,-30.4772,-71.0692,45.0,Rio Limari,450.0,Rio Hurtado
4506003,DGA,dga_web,Canal Tuqui En Salida Embalse Recoleta,380,-30.4961,-71.0931,45.0,Rio Limari,450.0,Rio Hurtado
4506004,DGA,dga_web,Canal Alimentador Recoleta Entrada Embalse,400,-30.5,-71.0667,45.0,Rio Limari,450.0,Rio Hurtado
4506005,DGA,dga_web,Canal Alimentador Recoleta En Bocatoma,450,-30.7,-70.9,45.0,Rio Limari,450.0,Rio Hurtado
4506006,DGA,dga_web,Bocatoma Canal Alimentador,450,-30.4806,-71.0667,45.0,Rio Limari,450.0,Rio Hurtado
4506007,DGA,dga_web,Recoleta Embalse,350,-30.5069,-71.0997,45.0,Rio Limari,450.0,Rio Hurtado
4511001,DGA,dga_web,Rio Grande En Las Pegas,1512,-30.95,-70.5167,45.0,Rio Limari,451.0,Rio Grande Alto (Hasta Arriba Junta Rio Rapel)
4511002,DGA,dga_web,Rio Grande En Las Ramadas,1380,-31.0117,-70.5811,45.0,Rio Limari,451.0,Rio Grande Alto (Hasta Arriba Junta Rio Rapel)
4511003,DGA,dga_web,Las Ramadas,1380,-31.0181,-70.5858,45.0,Rio Limari,451.0,Rio Grande Alto (Hasta Arriba Junta Rio Rapel)
4511004,DGA,dga_web,Cerro Vega Negra,3600,-30.9033,-70.5158,45.0,Rio Limari,451.0,Rio Grande Alto (Hasta Arriba Junta Rio Rapel)
4512001,DGA,dga_web,Rio Tascadero En Desembocadura,1370,-31.0119,-70.6644,45.0,Rio Limari,451.0,Rio Grande Alto (Hasta Arriba Junta Rio Rapel)
4512002,DGA,dga_web,Tascadero,1230,-31.0153,-70.6664,45.0,Rio Limari,451.0,Rio Grande Alto (Hasta Arriba Junta Rio Rapel)
4513001,DGA,dga_web,Rio Grande En Cuyano,870,-30.9242,-70.7731,45.0,Rio Limari,451.0,Rio Grande Alto (Hasta Arriba Junta Rio Rapel)
4513003,DGA,dga_web,Tulahuen,1020,-30.9669,-70.7639,45.0,Rio Limari,451.0,Rio Grande Alto (Hasta Arriba Junta Rio Rapel)
4513004,DGA,dga_web,Caren,740,-30.8547,-70.7708,45.0,Rio Limari,451.0,Rio Grande Alto (Hasta Arriba Junta Rio Rapel)
4514001,DGA,dga_web,Rio Mostazal En Cuestecita,1250,-30.8128,-70.6128,45.0,Rio Limari,451.0,Rio Grande Alto (Hasta Arriba Junta Rio Rapel)
4515001,DGA,dga_web,Rio Mostazal Antes Junta Rio Tulahuencito,685,-30.8456,-70.7139,45.0,Rio Limari,451.0,Rio Grande Alto (Hasta Arriba Junta Rio Rapel)
4515002,DGA,dga_web,Rio Mostazal En Caren,700,-30.8422,-70.7694,45.0,Rio Limari,451.0,Rio Grande Alto (Hasta Arriba Junta Rio Rapel)
4515004,DGA,dga_web,El Maiten,1350,-30.8058,-70.5939,45.0,Rio Limari,451.0,Rio Grande Alto (Hasta Arriba Junta Rio Rapel)
4515005,DGA,dga_web,Pedregal,880,-30.8539,-70.7078,45.0,Rio Limari,451.0,Rio Grande Alto (Hasta Arriba Junta Rio Rapel)
4515007,DGA,dga_web,Ramadilla,1250,-30.8933,-70.6511,45.0,Rio Limari,451.0,Rio Grande Alto (Hasta Arriba Junta Rio Rapel)
4516001,DGA,dga_web,Rio Grande En Coipo,575,-30.7828,-70.8222,45.0,Rio Limari,451.0,Rio Grande Alto (Hasta Arriba Junta Rio Rapel)
4516002,DGA,dga_web,Canal Palqui En Semita,660,-30.8167,-70.7833,45.0,Rio Limari,451.0,Rio Grande Alto (Hasta Arriba Junta Rio Rapel)
4516003,DGA,dga_web,Rio Grande En Zemita,0,-30.8144,-70.8042,45.0,Rio Limari,451.0,Rio Grande Alto (Hasta Arriba Junta Rio Rapel)
4520001,DGA,dga_web,Rio Los Molles En Ojos De Agua,2355,-30.7436,-70.4389,45.0,Rio Limari,452.0,Rio Grande Medio (Arriba Junta Rapel Y E Paloma)
4520002,DGA,dga_web,Canal Central Los Molles En Camara Dga,2465,-30.7656,-70.6158,45.0,Rio Limari,452.0,Rio Grande Medio (Arriba Junta Rapel Y E Paloma)
4520003,DGA,dga_web,Rio Los Molles En Bocatoma,2620,-30.75,-70.4417,45.0,Rio Limari,452.0,Rio Grande Medio (Arriba Junta Rapel Y E Paloma)
4520004,DGA,dga_web,Rio Rapel En Los Molles,0,-30.7167,-70.6667,45.0,Rio Limari,452.0,Rio Grande Medio (Arriba Junta Rapel Y E Paloma)
4520005,DGA,dga_web,Los Molles Bocatoma,2600,-30.7439,-70.4175,45.0,Rio Limari,452.0,R. Grande Medio (Arriba Junta R. Rapel Y R. Guatulame O Muro Emb. Paloma)
4522001,DGA,dga_web,Rio Rapel En Paloma,1190,-30.7333,-70.6167,45.0,Rio Limari,452.0,Rio Grande Medio (Arriba Junta Rapel Y E Paloma)
4522002,DGA,dga_web,Rio Rapel En Junta,485,-30.7081,-70.8728,45.0,Rio Limari,452.0,Rio Grande Medio (Arriba Junta Rapel Y E Paloma)
4522003,DGA,dga_web,Rapel,870,-30.7211,-70.7753,45.0,Rio Limari,452.0,R. Grande Medio (Arriba Junta R. Rapel Y R. Guatulame O Muro Emb. Paloma)
4523001,DGA,dga_web,Rio Grande En Agua Chica,440,-30.7022,-70.9,45.0,Rio Limari,452.0,Rio Grande Medio (Arriba Junta Rapel Y E Paloma)
4523002,DGA,dga_web,Rio Grande En Puntilla San Juan,420,-30.7047,-70.9244,45.0,Rio Limari,452.0,Rio Grande Medio (Arriba Junta Rapel Y E Paloma)
4523004,DGA,dga_web,Puntilla San Juan,430,-30.7025,-70.9178,45.0,Rio Limari,452.0,R. Grande Medio (Arriba Junta R. Rapel Y R. Guatulame O Muro Emb. Paloma)
4524001,DGA,dga_web,Monte Patria,445,-30.6914,-70.9608,45.0,Rio Limari,452.0,R. Grande Medio (Arriba Junta R. Rapel Y R. Guatulame O Muro Emb. Paloma)
4530001,DGA,dga_web,Rio Cogoti En Fraguita,1065,-31.1119,-70.885,45.0,Rio Limari,453.0,R. Guatulame (Muro Embalse Paloma)
4531001,DGA,dga_web,Rio Cogoti En Cogoti 18,810,-31.0833,-70.9556,45.0,Rio Limari,453.0,Rio Huatulame (Muro Embalse Paloma)
4531002,DGA,dga_web,Rio Cogoti Entrada Embalse Cogoti,670,-31.0325,-71.0403,45.0,Rio Limari,453.0,Rio Huatulame (Muro Embalse Paloma)
4531003,DGA,dga_web,Cogoti 18,840,-31.0836,-70.95,45.0,Rio Limari,453.0,R. Guatulame (Muro Embalse Paloma)
4532001,DGA,dga_web,Rio Combarbala En Ramadillas,1430,-31.2281,-70.9125,45.0,Rio Limari,453.0,Rio Huatulame (Muro Embalse Paloma)
4532002,DGA,dga_web,Rio Combarbala En Combarbala,0,-31.1783,-70.9908,45.0,Rio Limari,453.0,Rio Huatulame (Muro Embalse Paloma)
4532006,DGA,dga_web,Combarbala,870,-31.1736,-71.0008,45.0,Rio Limari,453.0,R. Guatulame (Muro Embalse Paloma)
4533001,DGA,dga_web,Quebrada Pana En Fonditos,0,-31.1667,-71.0833,45.0,Rio Limari,453.0,Rio Huatulame (Muro Embalse Paloma)
4533002,DGA,dga_web,Rio Pama En Valle Hermoso,850,-31.2656,-70.9908,45.0,Rio Limari,453.0,Rio Huatulame (Muro Embalse Paloma)
4534001,DGA,dga_web,Rio Pama Entrada Embalse Cogoti,680,-31.0833,-71.0667,45.0,Rio Limari,453.0,Rio Huatulame (Muro Embalse Paloma)
4535001,DGA,dga_web,Cogoti Embalse,740,-31.0078,-71.0856,45.0,Rio Limari,453.0,R. Guatulame (Muro Embalse Paloma)
4535002,DGA,dga_web,Rio Guatulame En Salida Embalse Cogoti,625,-30.9986,-71.09,45.0,Rio Limari,453.0,Rio Huatulame (Muro Embalse Paloma)
4535003,DGA,dga_web,Canal Matriz Cogoti En Bocatoma,485,-30.8833,-71.0167,45.0,Rio Limari,453.0,Rio Huatulame (Muro Embalse Paloma)
4535004,DGA,dga_web,Rio Guatulame En San Marcos,0,-30.925,-71.0583,45.0,Rio Limari,453.0,Rio Huatulame (Muro Embalse Paloma)
4537001,DGA,dga_web,Rio Guatulame En El Tome,410,-30.8006,-70.9697,45.0,Rio Limari,453.0,Rio Huatulame (Muro Embalse Paloma)
4537002,DGA,dga_web,Rio Guatulame En Huanilla,0,-30.8667,-70.9833,45.0,Rio Limari,453.0,Rio Huatulame (Muro Embalse Paloma)
4537003,DGA,dga_web,El Tome,420,-30.8178,-70.9706,45.0,Rio Limari,453.0,R. Guatulame (Muro Embalse Paloma)
4540001,DGA,dga_web,Rio Grande En Paloma 1,310,-30.6833,-71.05,45.0,Rio Limari,454.0,Rio Grande Bajo (Entre E Paloma Y Rio Hurtado)
4540002,DGA,dga_web,Rio Guatulame En Desembocadura Embalse La Paloma,330,-30.6997,-71.0358,45.0,Rio Limari,454.0,Rio Grande Bajo (Entre E Paloma Y Rio Hurtado)
4540003,DGA,dga_web,Canal Camarico Aguas Abajo Compuertas,0,-30.7,-71.05,45.0,Rio Limari,454.0,Rio Grande Bajo (Entre E Paloma Y Rio Hurtado)
4540005,DGA,dga_web,Sotaqui,280,-30.6306,-71.1194,45.0,Rio Limari,454.0,Rio Grande Bajo (Entre Embalse Paloma Y Rio Hurtado)
4540006,DGA,dga_web,Paloma Embalse,320,-30.6958,-71.0361,45.0,Rio Limari,454.0,Rio Grande Bajo (Entre Embalse Paloma Y Rio Hurtado)
4550001,DGA,dga_web,Rio Limari En Puntilla De Ovalle,0,-30.6167,-71.2,45.0,Rio Limari,455.0,Rio Limari
4550003,DGA,dga_web,Rio Limari En PeÑOnes Bajos,225,-30.5903,-71.1714,45.0,Rio Limari,455.0,Rio Limari
4551004,DGA,dga_web,Ovalle (Escuela Agricola),340,-30.5528,-71.1642,45.0,Rio Limari,455.0,Rio Limari
4551005,DGA,dga_web,Ovalle Dga,220,-30.6006,-71.2,45.0,Rio Limari,455.0,Rio Limari
4552002,DGA,dga_web,La Torre,120,-30.6164,-71.3742,45.0,Rio Limari,455.0,Rio Limari
4554003,DGA,dga_web,La Placilla,600,-30.8883,-71.3075,45.0,Rio Limari,455.0,Rio Limari
4555001,DGA,dga_web,Punitaqui,280,-30.8278,-71.25,45.0,Rio Limari,455.0,Rio Limari
4556001,DGA,dga_web,Estero Punitaqui En Chalinga,175,-30.75,-71.4167,45.0,Rio Limari,455.0,Rio Limari
4557001,DGA,dga_web,Salala,100,-30.6783,-71.53,45.0,Rio Limari,455.0,Rio Limari
4557002,DGA,dga_web,Estero Punitaqui Antes Junta Rio Limari,170,-30.6722,-71.5267,45.0,Rio Limari,455.0,Rio Limari
4558001,DGA,dga_web,Rio Limari En Panamericana,165,-30.6667,-71.5333,45.0,Rio Limari,455.0,Rio Limari
460001,DMC,dmc_merge,Chile Chico Ad.,306,-46.5808,-71.6928,115.0,Rio Baker,1152.0,Vertiente Sur Lago Jose Miguel Carrera
4610001,DGA,dga_web,Pea Blanca,360,-30.9,-71.5503,46.0,Costeras Entre R.Limari Y R.Choapa,461.0,E.  El Teniente Y E. El Almendro (Incl.)
4700001,DGA,dga_web,Estero El Soldado En Laguna El Pelado,3500,-32.0,-70.3167,47.0,Rio Choapa,470.0,Rio Choapa Alto (Hasta Abajo Junta Rio Cuncumen)
4700002,DGA,dga_web,El Soldado,3290,-32.0067,-70.3214,47.0,Rio Choapa,470.0,Rio Choapa Alto (Hasta Abajo Junta Rio Cuncumen)
470001,DMC,dmc_merge,Lord Cochrane Ad.,204,-47.2439,-72.5864,115.0,Rio Baker,1153.0,R. Baker Entre Desague L. J. M. Carrera Y R. De La Colonia
4703001,DGA,dga_web,Rio Choapa Sobre El Rio Valle,1260,-31.9833,-70.5667,47.0,Rio Choapa,470.0,Rio Choapa Alto (Hasta Abajo Junta Rio Cuncumen)
4703002,DGA,dga_web,Rio Choapa En Cuncumen,1200,-31.9667,-70.5944,47.0,Rio Choapa,470.0,Rio Choapa Alto (Hasta Abajo Junta Rio Cuncumen)
4703003,DGA,dga_web,Cuncumen,1100,-31.9336,-70.6133,47.0,Rio Choapa,470.0,Rio Choapa Alto (Hasta Abajo Junta Rio Cuncumen)
4704001,DGA,dga_web,Rio Cuncumen Antes Junta Choapa (Chacay),1030,-31.8167,-70.6,47.0,Rio Choapa,470.0,Rio Choapa Alto (Hasta Abajo Junta Rio Cuncumen)
4704002,DGA,dga_web,Rio Cuncumen Antes Bocatoma De Canales,1360,-31.8289,-70.5972,47.0,Rio Choapa,470.0,Rio Choapa Alto (Hasta Abajo Junta Rio Cuncumen)
4710001,DGA,dga_web,La Tranquilla,1000,-31.9,-70.6706,47.0,Rio Choapa,471.0,Rio Choapa Medio (Entre Rios Cuncumen E Illapel)
4711001,DGA,dga_web,Rio Choapa En Salamanca,500,-31.8117,-70.9303,47.0,Rio Choapa,471.0,Rio Choapa Medio (Entre Rios Cuncumen E Illapel)
4711002,DGA,dga_web,Canal Caracha En Bocatoma,500,-31.7833,-70.9667,47.0,Rio Choapa,471.0,Rio Choapa Medio (Entre Rios Cuncumen E Illapel)
4711003,DGA,dga_web,Coiron,840,-31.9019,-70.7708,47.0,Rio Choapa,471.0,Rio Choapa Medio (Entre Rios Cuncumen E Illapel)
4711004,DGA,dga_web,Salamanca,510,-31.7758,-70.9669,47.0,Rio Choapa,471.0,Rio Choapa Medio (Entre Rios Cuncumen E Illapel)
4712001,DGA,dga_web,Rio Chalinga En La Palmilla,800,-31.6958,-70.7158,47.0,Rio Choapa,471.0,Rio Choapa Medio (Entre Rios Cuncumen E Illapel)
4713001,DGA,dga_web,Rio Chalinga En San Agustin,850,-31.7186,-70.8442,47.0,Rio Choapa,471.0,Rio Choapa Medio (Entre Rios Cuncumen E Illapel)
4713002,DGA,dga_web,Rio Chalinga En Potrero Maitenes,0,-31.6667,-70.9333,47.0,Rio Choapa,471.0,Rio Choapa Medio (Entre Rios Cuncumen E Illapel)
4713003,DGA,dga_web,Rio Chalinga En Chalinga,0,-31.7408,-70.9522,47.0,Rio Choapa,471.0,Rio Choapa Medio (Entre Rios Cuncumen E Illapel)
4713004,DGA,dga_web,San Agustin,1050,-31.7289,-70.8317,47.0,Rio Choapa,471.0,Rio Choapa Medio (Entre Rios Cuncumen E Illapel)
4714001,DGA,dga_web,Estero Camisas En Desembocadura,400,-31.7714,-71.0639,47.0,Rio Choapa,471.0,Rio Choapa Medio (Entre Rios Cuncumen E Illapel)
4715002,DGA,dga_web,Mal Paso,375,-31.7533,-71.1,47.0,Rio Choapa,471.0,Rio Choapa Medio (Entre Rios Cuncumen E Illapel)
4716001,DGA,dga_web,Rio Choapa En Lamahuida,275,-31.7422,-71.1492,47.0,Rio Choapa,471.0,Rio Choapa Medio (Entre Rios Cuncumen E Illapel)
4716002,DGA,dga_web,Rio Choapa En Puente Ff.Cc.,0,-31.7167,-71.2167,47.0,Rio Choapa,471.0,Rio Choapa Medio (Entre Rios Cuncumen E Illapel)
4716003,DGA,dga_web,Canal Tamelcura,0,-30.6972,-71.0417,47.0,Rio Choapa,471.0,Rio Choapa Medio (Entre Rios Cuncumen E Illapel)
4716004,DGA,dga_web,Rio Choapa En Puente Negro,200,-31.6881,-71.2658,47.0,Rio Choapa,471.0,Rio Choapa Medio (Entre Rios Cuncumen E Illapel)
4716005,DGA,dga_web,Limahuida,300,-31.745,-71.1619,47.0,Rio Choapa,471.0,Rio Choapa Medio (Entre Rios Cuncumen E Illapel)
4721001,DGA,dga_web,Rio Illapel En Las Burras,1079,-31.5069,-70.8125,47.0,Rio Choapa,472.0,Rio Illapel
4721002,DGA,dga_web,Las Burras,1150,-31.5331,-70.8211,47.0,Rio Choapa,472.0,Rio Illapel
4722001,DGA,dga_web,Santa Virginia,980,-31.5503,-70.8353,47.0,Rio Choapa,472.0,Rio Illapel
4723001,DGA,dga_web,Rio Illapel En Huintil,775,-31.5608,-70.9644,47.0,Rio Choapa,472.0,Rio Illapel
4723002,DGA,dga_web,Huintil,650,-31.5669,-70.9817,47.0,Rio Choapa,472.0,Rio Illapel
4726001,DGA,dga_web,Rio Illapel En El Peral,0,-31.6647,-71.2547,47.0,Rio Choapa,472.0,Rio Illapel
4726002,DGA,dga_web,Rio Illapel En Santa Cruz,0,-31.65,-71.2167,47.0,Rio Choapa,472.0,Rio Illapel
4726003,DGA,dga_web,Illapel Dga,290,-31.645,-71.1908,47.0,Rio Choapa,472.0,Rio Illapel
4726004,DGA,dga_web,Illapel Dos,290,-31.645,-71.1908,47.0,Rio Choapa,472.0,Rio Illapel
4730001,DGA,dga_web,Rio Choapa Aguas Arriba Estero La Canela,40,-31.5836,-71.4606,47.0,Rio Choapa,473.0,Rio Choapa Bajo (Entre Rio Illapel Y Desemb.)
4730004,DGA,dga_web,Mincha Norte,50,-31.5875,-71.4453,47.0,Rio Choapa,473.0,Rio Choapa Bajo (Entre Rio Illapel Y Desembocadura)
4732001,DGA,dga_web,La Canela Dmc,290,-31.3986,-71.4569,47.0,Rio Choapa,473.0,Rio Choapa Bajo (Entre Rio Illapel Y Desembocadura)
4810001,DGA,dga_web,Estero Pupio En El Romero,570,-31.9481,-71.0747,48.0,Costeras Entre R.Choapa Y R.Quilimari,481.0,Estero Pupio
4810003,DGA,dga_web,Caimanes,450,-31.9322,-71.1361,48.0,Costeras Entre R.Choapa Y R.Quilimari,481.0,Estero Pupio
4810005,DGA,dga_web,Estero Pupio Antes Quebrada Llau-Llau,632,-31.9456,-71.0606,48.0,Costeras R.Choapa-R.Quilimari,481.0,Estero Pupio
4810006,DGA,dga_web,Quebrada Llau-Llau,624,-31.9461,-71.0619,48.0,Costeras R.Choapa-R.Quilimari,481.0,Estero Pupio
4820001,DGA,dga_web,Los Vilos Dmc,10,-31.9103,-71.5086,48.0,Costeras Entre R.Choapa Y R.Quilimari,482.0,Costeras Entre Estero Pupio Y Rio Quilimari
4900001,DGA,dga_web,Rio Quilimari En Chivato,0,-32.15,-71.1708,49.0,Rio Quilimari,490.0,Rio Quilimari Hasta Muro Embalse Culimo
4900002,DGA,dga_web,Culimo Embalse,380,-32.0675,-71.2225,49.0,Rio Quilimari,490.0,Rio Quilimari Hasta Muro Embalse Culimo
4900003,DGA,dga_web,Quelon,890,-32.1444,-71.1628,49.0,Rio Quilimari,490.0,Rio Quilimari Hasta Muro Embalse Culimo
4900004,DGA,dga_web,El Naranjo,720,-32.0314,-71.1522,49.0,Rio Quilimari,490.0,Rio Quilimari Hasta Muro Embalse Culimo
4901001,DGA,dga_web,Rio Quilimari En Los Condores,200,-32.1,-71.2833,49.0,Rio Quilimari,490.0,Rio Quilimari Hasta Muro Embalse Culimo
4901002,DGA,dga_web,Infiernillo,300,-32.0608,-71.3072,49.0,Rio Quilimari,490.0,Rio Quilimari Hasta Muro Embalse Culimo
4902001,DGA,dga_web,Rio Quilimari En Retama,0,-32.1333,-71.4,49.0,Rio Quilimari,490.0,Rio Quilimari Hasta Muro Embalse Culimo
4902002,DGA,dga_web,Los Condores,190,-32.1086,-71.3125,49.0,Rio Quilimari,490.0,Rio Quilimari Hasta Muro Embalse Culimo
4902003,DGA,dga_web,Quilimari,25,-32.1175,-71.5,49.0,Rio Quilimari,490.0,Rio Quilimari Hasta Muro Embalse Culimo
4902004,DGA,dga_web,Quebrada El Manzano,300,-32.1728,-71.3722,49.0,Rio Quilimari,490.0,Rio Quilimari Hasta Muro Embalse Culimo
4902005,DGA,dga_web,Quebrada Seca,140,-32.0686,-71.4061,49.0,Rio Quilimari,490.0,Rio Quilimari Hasta Muro Embalse Culimo
5000001,DGA,dga_web,Quebrada El Manzano,380,-32.22,-71.4017,50.0,Costeras Quilimari-Petorca,500.0,Costera Quilimari - Petorca
5100001,DGA,dga_web,Rio Sobrante En Piadero,1300,-32.2253,-70.7119,51.0,Rio Petorca,510.0,Rio Petorca Alto (Hasta Despues Junta Rio Sobrante)
5100003,DGA,dga_web,Nacimiento Del Sobrante,3380,-32.1883,-70.4831,51.0,Rio Petorca,510.0,Rio Petorca Alto (Hasta Despues Junta Rio Sobrante)
5100004,DGA,dga_web,Hacienda El Rancho,2000,-32.2256,-70.6044,51.0,Rio Petorca,510.0,Rio Petorca Alto (Hasta Despues Junta Rio Sobrante)
5100005,DGA,dga_web,El Trapiche,1180,-32.2286,-70.71,51.0,Rio Petorca,510.0,Rio Petorca Alto (Hasta Despues Junta Rio Sobrante)
5100006,DGA,dga_web,El Sobrante Hacienda,810,-32.2261,-70.7839,51.0,Rio Petorca,510.0,Rio Petorca Alto (Hasta Despues Junta Rio Sobrante)
